{"type":"FeatureCollection","features":[{"type":"Feature","geometry":{"type":"Point","coordinates":[34.269398,0.632706]},"properties":{"FNO":"OSM-44930630","F_NAME":"Malaba","F_TYPE":2,"AGENCY":"Unknown","COUNTY":"BUSIA","DISTRICT":"BUSIA"}},{"type":"Feature","geometry":{"type":"Point","coordinates":[37.6530603,-0.4683748]},"properties":{"FNO":"OSM-560737725","F_NAME":"karurumo health centre","F_TYPE":4,"AGENCY":"Unknown","COUNTY":"EMBU","DISTRICT":"EMBU"}},{"type":"Feature","geometry":{"type":"Point","coordinates":[37.5596679,-0.377371]},"properties":{"FNO":"OSM-560742254","F_NAME":"gatumbi health centre","F_TYPE":2,"AGENCY":"Unknown","COUNTY":"EMBU","DISTRICT":"EMBU"}},{"type":"Feature","geometry":{"type":"Point","coordinates":[36.7900408,-1.3109131]},"properties":{"FNO":"OSM-612006969","F_NAME":"St Elizabeth Medical Clinic","F_TYPE":4,"AGENCY":"Unknown","COUNTY":"NAIROBI","DISTRICT":"NAIROBI"}},{"type":"Feature","geometry":{"type":"Point","coordinates":[36.7938883,-1.3158943]},"properties":{"FNO":"OSM-612007081","F_NAME":"Royal Clinic","F_TYPE":4,"AGENCY":"Unknown","COUNTY":"NAIROBI","DISTRICT":"NAIROBI"}},{"type":"Feature","geometry":{"type":"Point","coordinates":[36.7952358,-1.3158759]},"properties":{"FNO":"OSM-612007083","F_NAME":"Shachif Health Unit","F_TYPE":4,"AGENCY":"Unknown","COUNTY":"NAIROBI","DISTRICT":"NAIROBI"}},{"type":"Feature","geometry":{"type":"Point","coordinates":[36.7761783,-1.3144036]},"properties":{"FNO":"OSM-612007202","F_NAME":"Senye Clinic","F_TYPE":4,"AGENCY":"Unknown","COUNTY":"NAIROBI","DISTRICT":"NAIROBI"}},{"type":"Feature","geometry":{"type":"Point","coordinates":[36.7929726,-1.3117443]},"properties":{"FNO":"OSM-612007391","F_NAME":"Frepals Nursing Home","F_TYPE":4,"AGENCY":"Unknown","COUNTY":"NAIROBI","DISTRICT":"NAIROBI"}},{"type":"Feature","geometry":{"type":"Point","coordinates":[36.7860504,-1.3078684]},"properties":{"FNO":"OSM-612007438","F_NAME":"Upendo Vision Clinic","F_TYPE":2,"AGENCY":"Unknown","COUNTY":"NAIROBI","DISTRICT":"NAIROBI"}},{"type":"Feature","geometry":{"type":"Point","coordinates":[36.7863291,-1.3071984]},"properties":{"FNO":"OSM-612007453","F_NAME":"New Makina Clinic","F_TYPE":2,"AGENCY":"Unknown","COUNTY":"NAIROBI","DISTRICT":"NAIROBI"}},{"type":"Feature","geometry":{"type":"Point","coordinates":[36.788823,-1.3072303]},"properties":{"FNO":"OSM-612007456","F_NAME":"St Augustus Medical Clinic","F_TYPE":2,"AGENCY":"Unknown","COUNTY":"NAIROBI","DISTRICT":"NAIROBI"}},{"type":"Feature","geometry":{"type":"Point","coordinates":[36.7782341,-1.3179274]},"properties":{"FNO":"OSM-612007539","F_NAME":"Wema Clinic","F_TYPE":2,"AGENCY":"Unknown","COUNTY":"NAIROBI","DISTRICT":"NAIROBI"}},{"type":"Feature","geometry":{"type":"Point","coordinates":[36.7991031,-1.3117185]},"properties":{"FNO":"OSM-612007778","F_NAME":"Saola Health Clinic","F_TYPE":2,"AGENCY":"Unknown","COUNTY":"NAIROBI","DISTRICT":"NAIROBI"}},{"type":"Feature","geometry":{"type":"Point","coordinates":[36.7977924,-1.3119267]},"properties":{"FNO":"OSM-612008488","F_NAME":"St Mac's Clinic","F_TYPE":4,"AGENCY":"Unknown","COUNTY":"NAIROBI","DISTRICT":"NAIROBI"}},{"type":"Feature","geometry":{"type":"Point","coordinates":[36.796057,-1.3173678]},"properties":{"FNO":"OSM-612008640","F_NAME":"Silanga Dispensary","F_TYPE":4,"AGENCY":"Unknown","COUNTY":"NAIROBI","DISTRICT":"NAIROBI"}},{"type":"Feature","geometry":{"type":"Point","coordinates":[36.7892032,-1.3079831]},"properties":{"FNO":"OSM-612008667","F_NAME":"Marie Stopes Clinic","F_TYPE":2,"AGENCY":"Unknown","COUNTY":"NAIROBI","DISTRICT":"NAIROBI"}},{"type":"Feature","geometry":{"type":"Point","coordinates":[36.8028346,-1.31523]},"properties":{"FNO":"OSM-612008709","F_NAME":"Rail Side Clinic","F_TYPE":2,"AGENCY":"Unknown","COUNTY":"NAIROBI","DISTRICT":"NAIROBI"}},{"type":"Feature","geometry":{"type":"Point","coordinates":[36.7754911,-1.3129567]},"properties":{"FNO":"OSM-612008760","F_NAME":"Senye Medical Clinic and Laboratory","F_TYPE":4,"AGENCY":"Unknown","COUNTY":"NAIROBI","DISTRICT":"NAIROBI"}},{"type":"Feature","geometry":{"type":"Point","coordinates":[36.7828489,-1.3145607]},"properties":{"FNO":"OSM-612008801","F_NAME":"St Knight Medical Clinic","F_TYPE":4,"AGENCY":"OWNER","COUNTY":"NAIROBI","DISTRICT":"NAIROBI"}},{"type":"Feature","geometry":{"type":"Point","coordinates":[36.7959341,-1.3128435]},"properties":{"FNO":"OSM-612008964","F_NAME":"Kishep Medical Centre and Dental Clinic","F_TYPE":4,"AGENCY":"Unknown","COUNTY":"NAIROBI","DISTRICT":"NAIROBI"}},{"type":"Feature","geometry":{"type":"Point","coordinates":[36.7834906,-1.3065921]},"properties":{"FNO":"OSM-612009265","F_NAME":"Mareba Medical Clinic","F_TYPE":2,"AGENCY":"Unknown","COUNTY":"NAIROBI","DISTRICT":"NAIROBI"}},{"type":"Feature","geometry":{"type":"Point","coordinates":[37.6281616,-0.2302644]},"properties":{"FNO":"OSM-651910906","F_NAME":"PCEA Chogoria Hospital","F_TYPE":2,"AGENCY":"PCEA","COUNTY":"THARAKA - NITHI","DISTRICT":"THARAKA - NITHI"}},{"type":"Feature","geometry":{"type":"Point","coordinates":[36.7964865,-1.3133844]},"properties":{"FNO":"OSM-696526809","F_NAME":"Mary Medical clinic","F_TYPE":4,"AGENCY":"Unknown","COUNTY":"NAIROBI","DISTRICT":"NAIROBI"}},{"type":"Feature","geometry":{"type":"Point","coordinates":[36.7888564,-1.3112945]},"properties":{"FNO":"OSM-696542681","F_NAME":"Mama Sofi mkunga/Bibi","F_TYPE":4,"AGENCY":"Unknown","COUNTY":"NAIROBI","DISTRICT":"NAIROBI"}},{"type":"Feature","geometry":{"type":"Point","coordinates":[36.7985247,-1.3133393]},"properties":{"FNO":"OSM-696543032","F_NAME":"Mtaani VCT","F_TYPE":4,"AGENCY":"Unknown","COUNTY":"NAIROBI","DISTRICT":"NAIROBI"}},{"type":"Feature","geometry":{"type":"Point","coordinates":[36.7958725,-1.3168583]},"properties":{"FNO":"OSM-696656810","F_NAME":"Okoa Medical Clinic","F_TYPE":4,"AGENCY":"Unknown","COUNTY":"NAIROBI","DISTRICT":"NAIROBI"}},{"type":"Feature","geometry":{"type":"Point","coordinates":[36.7978807,-1.3172686]},"properties":{"FNO":"OSM-696656815","F_NAME":"St Emmaculate James","F_TYPE":4,"AGENCY":"Unknown","COUNTY":"NAIROBI","DISTRICT":"NAIROBI"}},{"type":"Feature","geometry":{"type":"Point","coordinates":[36.7946621,-1.3171214]},"properties":{"FNO":"OSM-696772467","F_NAME":"Universe Medical Clinic","F_TYPE":4,"AGENCY":"Unknown","COUNTY":"NAIROBI","DISTRICT":"NAIROBI"}},{"type":"Feature","geometry":{"type":"Point","coordinates":[36.7967088,-1.3170903]},"properties":{"FNO":"OSM-696774091","F_NAME":"Gemkam Medical Clinic","F_TYPE":4,"AGENCY":"Unknown","COUNTY":"NAIROBI","DISTRICT":"NAIROBI"}},{"type":"Feature","geometry":{"type":"Point","coordinates":[36.7975113,-1.317186]},"properties":{"FNO":"OSM-696864912","F_NAME":"St Knight Medical Clinic","F_TYPE":4,"AGENCY":"Unknown","COUNTY":"NAIROBI","DISTRICT":"NAIROBI"}},{"type":"Feature","geometry":{"type":"Point","coordinates":[36.7882765,-1.3100272]},"properties":{"FNO":"OSM-698467073","F_NAME":"Makina Clinic","F_TYPE":2,"AGENCY":"Unknown","COUNTY":"NAIROBI","DISTRICT":"NAIROBI"}},{"type":"Feature","geometry":{"type":"Point","coordinates":[36.7899997,-1.3132558]},"properties":{"FNO":"OSM-698541774","F_NAME":"Kisembo Medical Clinic","F_TYPE":4,"AGENCY":"Unknown","COUNTY":"NAIROBI","DISTRICT":"NAIROBI"}},{"type":"Feature","geometry":{"type":"Point","coordinates":[36.7923801,-1.3120224]},"properties":{"FNO":"OSM-698541835","F_NAME":"Frepals Maternity","F_TYPE":2,"AGENCY":"Unknown","COUNTY":"NAIROBI","DISTRICT":"NAIROBI"}},{"type":"Feature","geometry":{"type":"Point","coordinates":[36.7964847,-1.3138445]},"properties":{"FNO":"OSM-698592306","F_NAME":"Community Royal clinic","F_TYPE":2,"AGENCY":"Unknown","COUNTY":"NAIROBI","DISTRICT":"NAIROBI"}},{"type":"Feature","geometry":{"type":"Point","coordinates":[36.7888229,-1.3072492]},"properties":{"FNO":"OSM-698592324","F_NAME":"St.Angela Clinic","F_TYPE":2,"AGENCY":"Unknown","COUNTY":"NAIROBI","DISTRICT":"NAIROBI"}},{"type":"Feature","geometry":{"type":"Point","coordinates":[36.7825137,-1.3072052]},"properties":{"FNO":"OSM-698602291","F_NAME":"Medical Clinic","F_TYPE":2,"AGENCY":"Unknown","COUNTY":"NAIROBI","DISTRICT":"NAIROBI"}},{"type":"Feature","geometry":{"type":"Point","coordinates":[36.7731928,-1.3087557]},"properties":{"FNO":"OSM-701794640","F_NAME":"Tumaini Medical Clinic","F_TYPE":4,"AGENCY":"Unknown","COUNTY":"NAIROBI","DISTRICT":"NAIROBI"}},{"type":"Feature","geometry":{"type":"Point","coordinates":[36.7753937,-1.3156345]},"properties":{"FNO":"OSM-708685749","F_NAME":"Revival Medical Centre","F_TYPE":2,"AGENCY":"Unknown","COUNTY":"NAIROBI","DISTRICT":"NAIROBI"}},{"type":"Feature","geometry":{"type":"Point","coordinates":[36.7990986,-1.3179328]},"properties":{"FNO":"OSM-708750146","F_NAME":"Undugu Medical Clinic","F_TYPE":2,"AGENCY":"Unknown","COUNTY":"NAIROBI","DISTRICT":"NAIROBI"}},{"type":"Feature","geometry":{"type":"Point","coordinates":[36.7851718,-1.3077733]},"properties":{"FNO":"OSM-708765476","F_NAME":"Natural Health Centre","F_TYPE":2,"AGENCY":"Unknown","COUNTY":"NAIROBI","DISTRICT":"NAIROBI"}},{"type":"Feature","geometry":{"type":"Point","coordinates":[39.3132265,-4.1393915]},"properties":{"FNO":"OSM-833388567","F_NAME":"KINANGO DISTRICT HOSPITAL","F_TYPE":4,"AGENCY":"Unknown","COUNTY":"KWALE","DISTRICT":"KWALE"}},{"type":"Feature","geometry":{"type":"Point","coordinates":[39.3185366,-4.1375584]},"properties":{"FNO":"OSM-833388762","F_NAME":"Katsutsu Clinic and one world computer college","F_TYPE":4,"AGENCY":"Unknown","COUNTY":"KWALE","DISTRICT":"KWALE"}},{"type":"Feature","geometry":{"type":"Point","coordinates":[36.782461,-1.3150604]},"properties":{"FNO":"OSM-856776627","F_NAME":"Uzima Chemist","F_TYPE":4,"AGENCY":"Unknown","COUNTY":"NAIROBI","DISTRICT":"NAIROBI"}},{"type":"Feature","geometry":{"type":"Point","coordinates":[36.8878761,-1.3250519]},"properties":{"FNO":"OSM-878845728","F_NAME":"Proposed Health Centre","F_TYPE":4,"AGENCY":"Unknown","COUNTY":"NAIROBI","DISTRICT":"NAIROBI"}},{"type":"Feature","geometry":{"type":"Point","coordinates":[36.8873739,-1.3180392]},"properties":{"FNO":"OSM-878847326","F_NAME":"AFYA MEDICAL CLINIC","F_TYPE":4,"AGENCY":"Unknown","COUNTY":"NAIROBI","DISTRICT":"NAIROBI"}},{"type":"Feature","geometry":{"type":"Point","coordinates":[36.8155523,-1.2796122]},"properties":{"FNO":"OSM-927268420","F_NAME":"University Mobile Clinic","F_TYPE":2,"AGENCY":"Unknown","COUNTY":"NAIROBI","DISTRICT":"NAIROBI"}},{"type":"Feature","geometry":{"type":"Point","coordinates":[36.8107235,-1.2782734]},"properties":{"FNO":"OSM-929942246","F_NAME":"Student's Clinic","F_TYPE":2,"AGENCY":"Unknown","COUNTY":"NAIROBI","DISTRICT":"NAIROBI"}},{"type":"Feature","geometry":{"type":"Point","coordinates":[36.8863598,-1.3209231]},"properties":{"FNO":"OSM-949597358","F_NAME":"Mednoor Medical Clinic","F_TYPE":4,"AGENCY":"Unknown","COUNTY":"NAIROBI","DISTRICT":"NAIROBI"}},{"type":"Feature","geometry":{"type":"Point","coordinates":[36.885033,-1.3201199]},"properties":{"FNO":"OSM-949597378","F_NAME":"Sidarec Mukuru Community Clinic","F_TYPE":4,"AGENCY":"Unknown","COUNTY":"NAIROBI","DISTRICT":"NAIROBI"}},{"type":"Feature","geometry":{"type":"Point","coordinates":[36.8844253,-1.3144256]},"properties":{"FNO":"OSM-949598013","F_NAME":"Alice Nursing Home","F_TYPE":2,"AGENCY":"Unknown","COUNTY":"NAIROBI","DISTRICT":"NAIROBI"}},{"type":"Feature","geometry":{"type":"Point","coordinates":[36.8922635,-1.3165544]},"properties":{"FNO":"OSM-949598225","F_NAME":"Huruma Nursing Home","F_TYPE":4,"AGENCY":"Unknown","COUNTY":"NAIROBI","DISTRICT":"NAIROBI"}},{"type":"Feature","geometry":{"type":"Point","coordinates":[36.6950951,1.0994509]},"properties":{"FNO":"OSM-974605665","F_NAME":"Unnamed Facility","F_TYPE":2,"AGENCY":"Unknown","COUNTY":"SAMBURU","DISTRICT":"SAMBURU"}},{"type":"Feature","geometry":{"type":"Point","coordinates":[36.8573823,-1.2645991]},"properties":{"FNO":"OSM-1038193546","F_NAME":"UnduguMedical Clinic","F_TYPE":4,"AGENCY":"Unknown","COUNTY":"NAIROBI","DISTRICT":"NAIROBI"}},{"type":"Feature","geometry":{"type":"Point","coordinates":[36.8607678,-1.2585631]},"properties":{"FNO":"OSM-1038202811","F_NAME":"Baraka german doctors/feeding programme","F_TYPE":4,"AGENCY":"Unknown","COUNTY":"NAIROBI","DISTRICT":"NAIROBI"}},{"type":"Feature","geometry":{"type":"Point","coordinates":[36.8442079,-1.2638847]},"properties":{"FNO":"OSM-1101638771","F_NAME":"Huduma Bora Medics Clinic","F_TYPE":2,"AGENCY":"Unknown","COUNTY":"NAIROBI","DISTRICT":"NAIROBI"}},{"type":"Feature","geometry":{"type":"Point","coordinates":[36.8675693,-1.2597152]},"properties":{"FNO":"OSM-1123193294","F_NAME":"Precise hospital","F_TYPE":2,"AGENCY":"Unknown","COUNTY":"NAIROBI","DISTRICT":"NAIROBI"}},{"type":"Feature","geometry":{"type":"Point","coordinates":[36.8720746,-1.2581256]},"properties":{"FNO":"OSM-1123201098","F_NAME":"Urban rural initiative overal dev.health providers","F_TYPE":4,"AGENCY":"Unknown","COUNTY":"NAIROBI","DISTRICT":"NAIROBI"}},{"type":"Feature","geometry":{"type":"Point","coordinates":[36.8658548,-1.2615407]},"properties":{"FNO":"OSM-1124602251","F_NAME":"Lions health clinic mathare valley","F_TYPE":2,"AGENCY":"Unknown","COUNTY":"NAIROBI","DISTRICT":"NAIROBI"}},{"type":"Feature","geometry":{"type":"Point","coordinates":[36.9857235,-0.4382609]},"properties":{"FNO":"OSM-1170757964","F_NAME":"Thunguma Medical Clinic","F_TYPE":4,"AGENCY":"Unknown","COUNTY":"NYERI","DISTRICT":"NYERI"}},{"type":"Feature","geometry":{"type":"Point","coordinates":[36.7808468,-1.3098881]},"properties":{"FNO":"OSM-1249726626","F_NAME":"Lazawil Medical Clinic","F_TYPE":4,"AGENCY":"Unknown","COUNTY":"NAIROBI","DISTRICT":"NAIROBI"}},{"type":"Feature","geometry":{"type":"Point","coordinates":[36.7916908,-1.293483]},"properties":{"FNO":"OSM-1271155392","F_NAME":"Jamko health clinic","F_TYPE":4,"AGENCY":"Unknown","COUNTY":"NAIROBI","DISTRICT":"NAIROBI"}},{"type":"Feature","geometry":{"type":"Point","coordinates":[36.7879942,-1.3114323]},"properties":{"FNO":"OSM-1367647606","F_NAME":"Nakhayo Medical Clinic","F_TYPE":4,"AGENCY":"Unknown","COUNTY":"NAIROBI","DISTRICT":"NAIROBI"}},{"type":"Feature","geometry":{"type":"Point","coordinates":[37.706726,-1.0521342]},"properties":{"FNO":"OSM-1367802448","F_NAME":"Mikuyuni Dispensary","F_TYPE":4,"AGENCY":"Unknown","COUNTY":"MACHAKOS","DISTRICT":"MACHAKOS"}},{"type":"Feature","geometry":{"type":"Point","coordinates":[36.885804,-1.3152805]},"properties":{"FNO":"OSM-1419005001","F_NAME":"St Teresa Medical Clinic","F_TYPE":4,"AGENCY":"Unknown","COUNTY":"NAIROBI","DISTRICT":"NAIROBI"}},{"type":"Feature","geometry":{"type":"Point","coordinates":[36.8871647,-1.3222884]},"properties":{"FNO":"OSM-1419101746","F_NAME":"Mukuru Medical Clinic","F_TYPE":4,"AGENCY":"Unknown","COUNTY":"NAIROBI","DISTRICT":"NAIROBI"}},{"type":"Feature","geometry":{"type":"Point","coordinates":[36.8870753,-1.3194486]},"properties":{"FNO":"OSM-1419101749","F_NAME":"Mertenity clinic","F_TYPE":4,"AGENCY":"Unknown","COUNTY":"NAIROBI","DISTRICT":"NAIROBI"}},{"type":"Feature","geometry":{"type":"Point","coordinates":[36.8921922,-1.3279842]},"properties":{"FNO":"OSM-1419101775","F_NAME":"Scion Health care","F_TYPE":4,"AGENCY":"Unknown","COUNTY":"NAIROBI","DISTRICT":"NAIROBI"}},{"type":"Feature","geometry":{"type":"Point","coordinates":[36.8346498,-1.3158117]},"properties":{"FNO":"OSM-1453526846","F_NAME":"Meridian Medical Centre","F_TYPE":4,"AGENCY":"Unknown","COUNTY":"NAIROBI","DISTRICT":"NAIROBI"}},{"type":"Feature","geometry":{"type":"Point","coordinates":[39.5630696,-4.2945303]},"properties":{"FNO":"OSM-1457775334","F_NAME":"Elisha Medical Clinic","F_TYPE":4,"AGENCY":"Unknown","COUNTY":"KWALE","DISTRICT":"KWALE"}},{"type":"Feature","geometry":{"type":"Point","coordinates":[39.5672286,-4.28059]},"properties":{"FNO":"OSM-1458463455","F_NAME":"Pendo Medical Clinic","F_TYPE":4,"AGENCY":"Unknown","COUNTY":"KWALE","DISTRICT":"KWALE"}},{"type":"Feature","geometry":{"type":"Point","coordinates":[39.3108753,-4.3959567]},"properties":{"FNO":"OSM-1489468515","F_NAME":"kibuyuni Dispensary","F_TYPE":4,"AGENCY":"Unknown","COUNTY":"KWALE","DISTRICT":"KWALE"}},{"type":"Feature","geometry":{"type":"Point","coordinates":[39.6323544,-4.1281527]},"properties":{"FNO":"OSM-1491229610","F_NAME":"Ngombeni Dispensary","F_TYPE":4,"AGENCY":"Unknown","COUNTY":"KWALE","DISTRICT":"KWALE"}},{"type":"Feature","geometry":{"type":"Point","coordinates":[36.7744036,-1.322328]},"properties":{"FNO":"OSM-1585635168","F_NAME":"Saint Mary's Mission Hospital","F_TYPE":2,"AGENCY":"Unknown","COUNTY":"NAIROBI","DISTRICT":"NAIROBI"}},{"type":"Feature","geometry":{"type":"Point","coordinates":[35.3491102,-1.3383944]},"properties":{"FNO":"OSM-1599710046","F_NAME":"Olesere Community Health Center","F_TYPE":4,"AGENCY":"Unknown","COUNTY":"NAROK","DISTRICT":"NAROK"}},{"type":"Feature","geometry":{"type":"Point","coordinates":[39.6820435,-4.0368289]},"properties":{"FNO":"OSM-1795791432","F_NAME":"Jocham","F_TYPE":4,"AGENCY":"Unknown","COUNTY":"MOMBASA","DISTRICT":"MOMBASA"}},{"type":"Feature","geometry":{"type":"Point","coordinates":[36.7739346,-1.3104547]},"properties":{"FNO":"OSM-1804804138","F_NAME":"Clinic Healthcare Kibera Branch","F_TYPE":2,"AGENCY":"Unknown","COUNTY":"NAIROBI","DISTRICT":"NAIROBI"}},{"type":"Feature","geometry":{"type":"Point","coordinates":[36.8707552,-1.3117284]},"properties":{"FNO":"OSM-1999653263","F_NAME":"Medilink medical centre","F_TYPE":4,"AGENCY":"Unknown","COUNTY":"NAIROBI","DISTRICT":"NAIROBI"}},{"type":"Feature","geometry":{"type":"Point","coordinates":[36.8420619,-1.3139158]},"properties":{"FNO":"OSM-2001001163","F_NAME":"RTI health centre","F_TYPE":4,"AGENCY":"Unknown","COUNTY":"NAIROBI","DISTRICT":"NAIROBI"}},{"type":"Feature","geometry":{"type":"Point","coordinates":[36.8424343,-1.3111864]},"properties":{"FNO":"OSM-2001079052","F_NAME":"Unnamed Facility","F_TYPE":4,"AGENCY":"Unknown","COUNTY":"NAIROBI","DISTRICT":"NAIROBI"}},{"type":"Feature","geometry":{"type":"Point","coordinates":[35.9665948,-0.4084031]},"properties":{"FNO":"OSM-2117920159","F_NAME":"Unnamed Facility","F_TYPE":4,"AGENCY":"Unknown","COUNTY":"NAKURU","DISTRICT":"NAKURU"}},{"type":"Feature","geometry":{"type":"Point","coordinates":[36.8350221,-1.3164881]},"properties":{"FNO":"OSM-2145329589","F_NAME":"The AgaKhan University","F_TYPE":2,"AGENCY":"Unknown","COUNTY":"NAIROBI","DISTRICT":"NAIROBI"}},{"type":"Feature","geometry":{"type":"Point","coordinates":[39.1871902,-4.3562395]},"properties":{"FNO":"OSM-2287954594","F_NAME":"Mbegani Dispensary","F_TYPE":4,"AGENCY":"Unknown","COUNTY":"KWALE","DISTRICT":"KWALE"}},{"type":"Feature","geometry":{"type":"Point","coordinates":[36.8717263,-1.2571174]},"properties":{"FNO":"OSM-2349075059","F_NAME":"UBAMA CHEMIST AND CLINIC","F_TYPE":4,"AGENCY":"Unknown","COUNTY":"NAIROBI","DISTRICT":"NAIROBI"}},{"type":"Feature","geometry":{"type":"Point","coordinates":[36.8699116,-1.2574945]},"properties":{"FNO":"OSM-2349086737","F_NAME":"DESLAN CHEMIST","F_TYPE":4,"AGENCY":"Unknown","COUNTY":"NAIROBI","DISTRICT":"NAIROBI"}},{"type":"Feature","geometry":{"type":"Point","coordinates":[37.5373451,-1.8160478]},"properties":{"FNO":"OSM-2362999295","F_NAME":"Unnamed Facility","F_TYPE":4,"AGENCY":"government","COUNTY":"MAKUENI","DISTRICT":"MAKUENI"}},{"type":"Feature","geometry":{"type":"Point","coordinates":[36.8589623,-1.2542578]},"properties":{"FNO":"OSM-2373149870","F_NAME":"GEOJAN CHEMIST","F_TYPE":4,"AGENCY":"Unknown","COUNTY":"NAIROBI","DISTRICT":"NAIROBI"}},{"type":"Feature","geometry":{"type":"Point","coordinates":[36.8609509,-1.2559436]},"properties":{"FNO":"OSM-2373149871","F_NAME":"SINAI CHEMIST","F_TYPE":4,"AGENCY":"Unknown","COUNTY":"NAIROBI","DISTRICT":"NAIROBI"}},{"type":"Feature","geometry":{"type":"Point","coordinates":[36.8667464,-1.2609437]},"properties":{"FNO":"OSM-2374943965","F_NAME":"Huruma Lions Health Center","F_TYPE":4,"AGENCY":"Unknown","COUNTY":"NAIROBI","DISTRICT":"NAIROBI"}},{"type":"Feature","geometry":{"type":"Point","coordinates":[36.8533965,-1.2660199]},"properties":{"FNO":"OSM-2374989981","F_NAME":"MSF","F_TYPE":4,"AGENCY":"Médecins sans frontières","COUNTY":"NAIROBI","DISTRICT":"NAIROBI"}},{"type":"Feature","geometry":{"type":"Point","coordinates":[36.8611366,-1.2617494]},"properties":{"FNO":"OSM-2378857096","F_NAME":"Hope chemist","F_TYPE":4,"AGENCY":"Unknown","COUNTY":"NAIROBI","DISTRICT":"NAIROBI"}},{"type":"Feature","geometry":{"type":"Point","coordinates":[36.7100202,-0.9812844]},"properties":{"FNO":"OSM-2379037882","F_NAME":"nduriri_dispensary","F_TYPE":4,"AGENCY":"Unknown","COUNTY":"KIAMBU","DISTRICT":"KIAMBU"}},{"type":"Feature","geometry":{"type":"Point","coordinates":[36.8591679,-1.254862]},"properties":{"FNO":"OSM-2389187318","F_NAME":"ST. FRANCIS HEALTH SERVICES","F_TYPE":4,"AGENCY":"Unknown","COUNTY":"NAIROBI","DISTRICT":"NAIROBI"}},{"type":"Feature","geometry":{"type":"Point","coordinates":[36.8831751,-1.248706]},"properties":{"FNO":"OSM-2405823273","F_NAME":"Ebenezer Clinic and Chemist","F_TYPE":4,"AGENCY":"Unknown","COUNTY":"NAIROBI","DISTRICT":"NAIROBI"}},{"type":"Feature","geometry":{"type":"Point","coordinates":[36.883296,-1.2489842]},"properties":{"FNO":"OSM-2405823280","F_NAME":"Grace Chemist and Clinic","F_TYPE":4,"AGENCY":"Unknown","COUNTY":"NAIROBI","DISTRICT":"NAIROBI"}},{"type":"Feature","geometry":{"type":"Point","coordinates":[36.8856522,-1.2478573]},"properties":{"FNO":"OSM-2405823283","F_NAME":"Hope Medical Clinic","F_TYPE":4,"AGENCY":"Unknown","COUNTY":"NAIROBI","DISTRICT":"NAIROBI"}},{"type":"Feature","geometry":{"type":"Point","coordinates":[36.8832957,-1.2478133]},"properties":{"FNO":"OSM-2405823289","F_NAME":"Joy Medical Clinic","F_TYPE":4,"AGENCY":"Unknown","COUNTY":"NAIROBI","DISTRICT":"NAIROBI"}},{"type":"Feature","geometry":{"type":"Point","coordinates":[36.8878506,-1.2468798]},"properties":{"FNO":"OSM-2405823297","F_NAME":"Redeemed Gospel Church Clinic","F_TYPE":4,"AGENCY":"Unknown","COUNTY":"NAIROBI","DISTRICT":"NAIROBI"}},{"type":"Feature","geometry":{"type":"Point","coordinates":[36.8849476,-1.2485588]},"properties":{"FNO":"OSM-2405823306","F_NAME":"St. Florence Medical Clinic","F_TYPE":4,"AGENCY":"Unknown","COUNTY":"NAIROBI","DISTRICT":"NAIROBI"}},{"type":"Feature","geometry":{"type":"Point","coordinates":[36.893459,-1.2419951]},"properties":{"FNO":"OSM-2405836256","F_NAME":"Kemrif","F_TYPE":4,"AGENCY":"Unknown","COUNTY":"NAIROBI","DISTRICT":"NAIROBI"}},{"type":"Feature","geometry":{"type":"Point","coordinates":[36.8974404,-1.2413547]},"properties":{"FNO":"OSM-2405836267","F_NAME":"Lusky summer tumaini clinic","F_TYPE":4,"AGENCY":"Unknown","COUNTY":"NAIROBI","DISTRICT":"NAIROBI"}},{"type":"Feature","geometry":{"type":"Point","coordinates":[36.8796434,-1.247564]},"properties":{"FNO":"OSM-2405854915","F_NAME":"Green wood medical clinic","F_TYPE":4,"AGENCY":"Unknown","COUNTY":"NAIROBI","DISTRICT":"NAIROBI"}},{"type":"Feature","geometry":{"type":"Point","coordinates":[36.883334,-1.2468717]},"properties":{"FNO":"OSM-2405885991","F_NAME":"Keza Health Care Services","F_TYPE":4,"AGENCY":"Unknown","COUNTY":"NAIROBI","DISTRICT":"NAIROBI"}},{"type":"Feature","geometry":{"type":"Point","coordinates":[36.7759698,-1.3110416]},"properties":{"FNO":"OSM-2438933689","F_NAME":"Kianda Medical Center","F_TYPE":4,"AGENCY":"Unknown","COUNTY":"NAIROBI","DISTRICT":"NAIROBI"}},{"type":"Feature","geometry":{"type":"Point","coordinates":[36.3623272,0.0385371]},"properties":{"FNO":"OSM-2475402441","F_NAME":"Nyahururu General Hospital","F_TYPE":4,"AGENCY":"Unknown","COUNTY":"LAIKIPIA","DISTRICT":"LAIKIPIA"}},{"type":"Feature","geometry":{"type":"Point","coordinates":[39.5552587,-4.3047332]},"properties":{"FNO":"OSM-2485055485","F_NAME":"Unnamed Facility","F_TYPE":4,"AGENCY":"Unknown","COUNTY":"KWALE","DISTRICT":"KWALE"}},{"type":"Feature","geometry":{"type":"Point","coordinates":[40.9068394,-2.2785988]},"properties":{"FNO":"OSM-2618414052","F_NAME":"King Fahd Lamu district Hospital","F_TYPE":4,"AGENCY":"Unknown","COUNTY":"LAMU","DISTRICT":"LAMU"}},{"type":"Feature","geometry":{"type":"Point","coordinates":[40.9135777,-2.2934777]},"properties":{"FNO":"OSM-2618692992","F_NAME":"Shella medical clinic","F_TYPE":4,"AGENCY":"Unknown","COUNTY":"LAMU","DISTRICT":"LAMU"}},{"type":"Feature","geometry":{"type":"Point","coordinates":[34.2750352,0.4298475]},"properties":{"FNO":"OSM-2625564270","F_NAME":"Lwanyange dispensary","F_TYPE":4,"AGENCY":"Unknown","COUNTY":"BUSIA","DISTRICT":"BUSIA"}},{"type":"Feature","geometry":{"type":"Point","coordinates":[34.3820407,0.0519005]},"properties":{"FNO":"OSM-2629780937","F_NAME":"wagwer clinic","F_TYPE":4,"AGENCY":"Unknown","COUNTY":"SIAYA","DISTRICT":"SIAYA"}},{"type":"Feature","geometry":{"type":"Point","coordinates":[33.9927461,0.0564053]},"properties":{"FNO":"OSM-2631068160","F_NAME":"Rukala Dispensary transformer","F_TYPE":4,"AGENCY":"Unknown","COUNTY":"BUSIA","DISTRICT":"BUSIA"}},{"type":"Feature","geometry":{"type":"Point","coordinates":[34.1790179,0.2062836]},"properties":{"FNO":"OSM-2631115731","F_NAME":"Matibabu Hospital","F_TYPE":4,"AGENCY":"Unknown","COUNTY":"SIAYA","DISTRICT":"SIAYA"}},{"type":"Feature","geometry":{"type":"Point","coordinates":[34.4779604,0.0587926]},"properties":{"FNO":"OSM-2631126257","F_NAME":"Gongo health center","F_TYPE":4,"AGENCY":"Unknown","COUNTY":"SIAYA","DISTRICT":"SIAYA"}},{"type":"Feature","geometry":{"type":"Point","coordinates":[34.5057052,0.0403503]},"properties":{"FNO":"OSM-2631999238","F_NAME":"lihanda health center","F_TYPE":4,"AGENCY":"Unknown","COUNTY":"SIAYA","DISTRICT":"SIAYA"}},{"type":"Feature","geometry":{"type":"Point","coordinates":[35.2807341,0.5135828]},"properties":{"FNO":"OSM-2667363817","F_NAME":"Uasin Gishu Memorial Hospital","F_TYPE":4,"AGENCY":"Unknown","COUNTY":"UASIN GISHU","DISTRICT":"UASIN GISHU"}},{"type":"Feature","geometry":{"type":"Point","coordinates":[35.2815791,0.5125889]},"properties":{"FNO":"OSM-2667364486","F_NAME":"Moi Teaching & Referal Hospital Physiotherapy","F_TYPE":4,"AGENCY":"Unknown","COUNTY":"UASIN GISHU","DISTRICT":"UASIN GISHU"}},{"type":"Feature","geometry":{"type":"Point","coordinates":[36.9135547,-1.1901171]},"properties":{"FNO":"OSM-2700368083","F_NAME":"Kahawa Health Centre","F_TYPE":4,"AGENCY":"Unknown","COUNTY":"NAIROBI","DISTRICT":"NAIROBI"}},{"type":"Feature","geometry":{"type":"Point","coordinates":[37.9994757,-0.9314961]},"properties":{"FNO":"OSM-2864248994","F_NAME":"kiomo dispensary","F_TYPE":4,"AGENCY":"Unknown","COUNTY":"KITUI","DISTRICT":"KITUI"}},{"type":"Feature","geometry":{"type":"Point","coordinates":[37.9960769,-0.8434832]},"properties":{"FNO":"OSM-2864248999","F_NAME":"kyethani health centre","F_TYPE":4,"AGENCY":"Unknown","COUNTY":"KITUI","DISTRICT":"KITUI"}},{"type":"Feature","geometry":{"type":"Point","coordinates":[37.5865916,-0.799496]},"properties":{"FNO":"OSM-2877920993","F_NAME":"makima dispensary","F_TYPE":4,"AGENCY":"Unknown","COUNTY":"EMBU","DISTRICT":"EMBU"}},{"type":"Feature","geometry":{"type":"Point","coordinates":[37.8733243,-1.0611389]},"properties":{"FNO":"OSM-2877935301","F_NAME":"Kakululo dispensary","F_TYPE":4,"AGENCY":"Unknown","COUNTY":"KITUI","DISTRICT":"KITUI"}},{"type":"Feature","geometry":{"type":"Point","coordinates":[37.861249,-0.9150613]},"properties":{"FNO":"OSM-2877935320","F_NAME":"Kyusyani dispensary","F_TYPE":4,"AGENCY":"Unknown","COUNTY":"KITUI","DISTRICT":"KITUI"}},{"type":"Feature","geometry":{"type":"Point","coordinates":[38.0285179,-0.9441124]},"properties":{"FNO":"OSM-2877935327","F_NAME":"Muliluni dispensary","F_TYPE":4,"AGENCY":"Unknown","COUNTY":"KITUI","DISTRICT":"KITUI"}},{"type":"Feature","geometry":{"type":"Point","coordinates":[37.9143453,-1.0791152]},"properties":{"FNO":"OSM-2877935335","F_NAME":"Ngongoni dispensary","F_TYPE":4,"AGENCY":"Unknown","COUNTY":"KITUI","DISTRICT":"KITUI"}},{"type":"Feature","geometry":{"type":"Point","coordinates":[37.8605712,-0.8260946]},"properties":{"FNO":"OSM-2877935353","F_NAME":"Thaananzau dispensary","F_TYPE":4,"AGENCY":"Unknown","COUNTY":"KITUI","DISTRICT":"KITUI"}},{"type":"Feature","geometry":{"type":"Point","coordinates":[37.9110597,-1.0396366]},"properties":{"FNO":"OSM-2877935357","F_NAME":"Thitani helath centre","F_TYPE":4,"AGENCY":"Unknown","COUNTY":"KITUI","DISTRICT":"KITUI"}},{"type":"Feature","geometry":{"type":"Point","coordinates":[37.9013746,-0.8929881]},"properties":{"FNO":"OSM-2877935363","F_NAME":"Wikivuvwa dispensary","F_TYPE":4,"AGENCY":"Unknown","COUNTY":"KITUI","DISTRICT":"KITUI"}},{"type":"Feature","geometry":{"type":"Point","coordinates":[37.9695969,-0.8522937]},"properties":{"FNO":"OSM-2877935378","F_NAME":"itongolani dispensary","F_TYPE":4,"AGENCY":"Unknown","COUNTY":"KITUI","DISTRICT":"KITUI"}},{"type":"Feature","geometry":{"type":"Point","coordinates":[37.933095,-0.888281]},"properties":{"FNO":"OSM-2877935381","F_NAME":"kairungu dispensary","F_TYPE":4,"AGENCY":"Unknown","COUNTY":"KITUI","DISTRICT":"KITUI"}},{"type":"Feature","geometry":{"type":"Point","coordinates":[38.1240888,-0.9802417]},"properties":{"FNO":"OSM-2877935387","F_NAME":"kanynga health centre","F_TYPE":4,"AGENCY":"Unknown","COUNTY":"KITUI","DISTRICT":"KITUI"}},{"type":"Feature","geometry":{"type":"Point","coordinates":[38.1192573,-1.0207965]},"properties":{"FNO":"OSM-2877935392","F_NAME":"katalwa dispensary","F_TYPE":4,"AGENCY":"Unknown","COUNTY":"KITUI","DISTRICT":"KITUI"}},{"type":"Feature","geometry":{"type":"Point","coordinates":[37.9648625,-0.9343228]},"properties":{"FNO":"OSM-2877939679","F_NAME":"Kiio dispensary","F_TYPE":4,"AGENCY":"Unknown","COUNTY":"KITUI","DISTRICT":"KITUI"}},{"type":"Feature","geometry":{"type":"Point","coordinates":[37.5467729,-0.7502155]},"properties":{"FNO":"OSM-2885939513","F_NAME":"Thiba dispensary","F_TYPE":4,"AGENCY":"Unknown","COUNTY":"EMBU","DISTRICT":"EMBU"}},{"type":"Feature","geometry":{"type":"Point","coordinates":[35.8668576,-1.0847471]},"properties":{"FNO":"OSM-2969743459","F_NAME":"Narok District Hospital","F_TYPE":2,"AGENCY":"Unknown","COUNTY":"NAROK","DISTRICT":"NAROK"}},{"type":"Feature","geometry":{"type":"Point","coordinates":[37.5902869,0.3664038]},"properties":{"FNO":"OSM-3003029891","F_NAME":"isiolo general hospital","F_TYPE":4,"AGENCY":"Unknown","COUNTY":"ISIOLO","DISTRICT":"ISIOLO"}},{"type":"Feature","geometry":{"type":"Point","coordinates":[37.5436727,0.2857858]},"properties":{"FNO":"OSM-3003032035","F_NAME":"ntirim dispensary","F_TYPE":4,"AGENCY":"Unknown","COUNTY":"ISIOLO","DISTRICT":"ISIOLO"}},{"type":"Feature","geometry":{"type":"Point","coordinates":[37.1599387,-0.7224975]},"properties":{"FNO":"OSM-3105367379","F_NAME":"Counselling Services","F_TYPE":4,"AGENCY":"Unknown","COUNTY":"MURANG'A","DISTRICT":"MURANG'A"}},{"type":"Feature","geometry":{"type":"Point","coordinates":[37.1607827,-0.7175138]},"properties":{"FNO":"OSM-3105367383","F_NAME":"Drug Youth Rehabilitation Centre","F_TYPE":4,"AGENCY":"Unknown","COUNTY":"MURANG'A","DISTRICT":"MURANG'A"}},{"type":"Feature","geometry":{"type":"Point","coordinates":[37.1564004,-0.7199368]},"properties":{"FNO":"OSM-3105367384","F_NAME":"DynaPharm International Company","F_TYPE":4,"AGENCY":"Unknown","COUNTY":"MURANG'A","DISTRICT":"MURANG'A"}},{"type":"Feature","geometry":{"type":"Point","coordinates":[37.161006,-0.7213571]},"properties":{"FNO":"OSM-3105367389","F_NAME":"Focus Diagnostics Services","F_TYPE":4,"AGENCY":"Unknown","COUNTY":"MURANG'A","DISTRICT":"MURANG'A"}},{"type":"Feature","geometry":{"type":"Point","coordinates":[37.1547287,-0.7218982]},"properties":{"FNO":"OSM-3105367390","F_NAME":"Hadassa Health Care Centre;Muthonis Shop","F_TYPE":4,"AGENCY":"Unknown","COUNTY":"MURANG'A","DISTRICT":"MURANG'A"}},{"type":"Feature","geometry":{"type":"Point","coordinates":[37.1499188,-0.7318073]},"properties":{"FNO":"OSM-3105367393","F_NAME":"Huruma Medical Services","F_TYPE":4,"AGENCY":"Unknown","COUNTY":"MURANG'A","DISTRICT":"MURANG'A"}},{"type":"Feature","geometry":{"type":"Point","coordinates":[37.1591649,-0.7205744]},"properties":{"FNO":"OSM-3105367399","F_NAME":"Kiriani Mission hospital","F_TYPE":4,"AGENCY":"County Government of Muranga","COUNTY":"MURANG'A","DISTRICT":"MURANG'A"}},{"type":"Feature","geometry":{"type":"Point","coordinates":[37.1602896,-0.7206437]},"properties":{"FNO":"OSM-3105367401","F_NAME":"Maathai Supermarket","F_TYPE":4,"AGENCY":"Unknown","COUNTY":"MURANG'A","DISTRICT":"MURANG'A"}},{"type":"Feature","geometry":{"type":"Point","coordinates":[37.1568044,-0.7203529]},"properties":{"FNO":"OSM-3105367404","F_NAME":"Mayo Clinic","F_TYPE":4,"AGENCY":"Unknown","COUNTY":"MURANG'A","DISTRICT":"MURANG'A"}},{"type":"Feature","geometry":{"type":"Point","coordinates":[37.1562028,-0.7197649]},"properties":{"FNO":"OSM-3105367407","F_NAME":"Medrite Surgical Clinic","F_TYPE":4,"AGENCY":"Unknown","COUNTY":"MURANG'A","DISTRICT":"MURANG'A"}},{"type":"Feature","geometry":{"type":"Point","coordinates":[37.1606479,-0.7232662]},"properties":{"FNO":"OSM-3105367421","F_NAME":"Muyesu Medical centres","F_TYPE":4,"AGENCY":"Unknown","COUNTY":"MURANG'A","DISTRICT":"MURANG'A"}},{"type":"Feature","geometry":{"type":"Point","coordinates":[37.1609994,-0.7226431]},"properties":{"FNO":"OSM-3105367424","F_NAME":"Neno Opticians","F_TYPE":4,"AGENCY":"Unknown","COUNTY":"MURANG'A","DISTRICT":"MURANG'A"}},{"type":"Feature","geometry":{"type":"Point","coordinates":[37.1570918,-0.7206243]},"properties":{"FNO":"OSM-3105369935","F_NAME":"Waiganjos ENT Clinic","F_TYPE":4,"AGENCY":"Unknown","COUNTY":"MURANG'A","DISTRICT":"MURANG'A"}},{"type":"Feature","geometry":{"type":"Point","coordinates":[36.9717233,-1.1464083]},"properties":{"FNO":"OSM-3154208461","F_NAME":"Crestwood Medical Centre","F_TYPE":4,"AGENCY":"Unknown","COUNTY":"KIAMBU","DISTRICT":"KIAMBU"}},{"type":"Feature","geometry":{"type":"Point","coordinates":[34.9213955,-0.4455503]},"properties":{"FNO":"OSM-3195125806","F_NAME":"Unnamed Facility","F_TYPE":4,"AGENCY":"Unknown","COUNTY":"HOMA BAY","DISTRICT":"HOMA BAY"}},{"type":"Feature","geometry":{"type":"Point","coordinates":[35.3079132,3.9530242]},"properties":{"FNO":"OSM-3278257060","F_NAME":"Unnamed Facility","F_TYPE":4,"AGENCY":"Unknown","COUNTY":"TURKANA","DISTRICT":"TURKANA"}},{"type":"Feature","geometry":{"type":"Point","coordinates":[34.206122,-0.430279]},"properties":{"FNO":"OSM-3278320679","F_NAME":"St Jude's Clinic at icipe","F_TYPE":4,"AGENCY":"Unknown","COUNTY":"HOMA BAY","DISTRICT":"HOMA BAY"}},{"type":"Feature","geometry":{"type":"Point","coordinates":[34.2081253,-0.4227703]},"properties":{"FNO":"OSM-3281773321","F_NAME":"Mbita District Hospital","F_TYPE":4,"AGENCY":"Unknown","COUNTY":"HOMA BAY","DISTRICT":"HOMA BAY"}},{"type":"Feature","geometry":{"type":"Point","coordinates":[34.2071321,-0.4238437]},"properties":{"FNO":"OSM-3281773331","F_NAME":"Port Florence Community Hospital Clinic","F_TYPE":4,"AGENCY":"Unknown","COUNTY":"HOMA BAY","DISTRICT":"HOMA BAY"}},{"type":"Feature","geometry":{"type":"Point","coordinates":[37.5761094,0.3570899]},"properties":{"FNO":"OSM-3283811136","F_NAME":"anglican parish dispensary","F_TYPE":4,"AGENCY":"Unknown","COUNTY":"ISIOLO","DISTRICT":"ISIOLO"}},{"type":"Feature","geometry":{"type":"Point","coordinates":[37.5655812,0.3274508]},"properties":{"FNO":"OSM-3283811144","F_NAME":"avi mothercare","F_TYPE":4,"AGENCY":"Unknown","COUNTY":"ISIOLO","DISTRICT":"ISIOLO"}},{"type":"Feature","geometry":{"type":"Point","coordinates":[37.5856725,0.3562201]},"properties":{"FNO":"OSM-3283811984","F_NAME":"isiolo manyatta hospital","F_TYPE":4,"AGENCY":"Unknown","COUNTY":"ISIOLO","DISTRICT":"ISIOLO"}},{"type":"Feature","geometry":{"type":"Point","coordinates":[37.4393698,0.3037402]},"properties":{"FNO":"OSM-3283812004","F_NAME":"Leparua dispensary","F_TYPE":4,"AGENCY":"Unknown","COUNTY":"ISIOLO","DISTRICT":"ISIOLO"}},{"type":"Feature","geometry":{"type":"Point","coordinates":[37.5176727,0.5534442]},"properties":{"FNO":"OSM-3283812015","F_NAME":"mugurnanyore simba clinic","F_TYPE":4,"AGENCY":"Unknown","COUNTY":"ISIOLO","DISTRICT":"ISIOLO"}},{"type":"Feature","geometry":{"type":"Point","coordinates":[37.5750279,0.340898]},"properties":{"FNO":"OSM-3283812027","F_NAME":"pepo la tumaini dispensary","F_TYPE":2,"AGENCY":"Unknown","COUNTY":"ISIOLO","DISTRICT":"ISIOLO"}},{"type":"Feature","geometry":{"type":"Point","coordinates":[37.5485657,-0.8167062]},"properties":{"FNO":"OSM-3283879885","F_NAME":"consolata dispensary","F_TYPE":4,"AGENCY":"Unknown","COUNTY":"EMBU","DISTRICT":"EMBU"}},{"type":"Feature","geometry":{"type":"Point","coordinates":[37.5810869,-0.7829811]},"properties":{"FNO":"OSM-3283879900","F_NAME":"makima clinic","F_TYPE":4,"AGENCY":"Unknown","COUNTY":"EMBU","DISTRICT":"EMBU"}},{"type":"Feature","geometry":{"type":"Point","coordinates":[37.5432728,-0.8356615]},"properties":{"FNO":"OSM-3283879911","F_NAME":"mbondoni dispensary","F_TYPE":4,"AGENCY":"Unknown","COUNTY":"EMBU","DISTRICT":"EMBU"}},{"type":"Feature","geometry":{"type":"Point","coordinates":[37.4763961,-0.8327221]},"properties":{"FNO":"OSM-3283879919","F_NAME":"mulukusi dispensary","F_TYPE":4,"AGENCY":"Unknown","COUNTY":"EMBU","DISTRICT":"EMBU"}},{"type":"Feature","geometry":{"type":"Point","coordinates":[36.8889635,-1.2198096]},"properties":{"FNO":"OSM-3289275202","F_NAME":"The Mater Hospital - Satellite Clinic(TRM)","F_TYPE":4,"AGENCY":"Unknown","COUNTY":"NAIROBI","DISTRICT":"NAIROBI"}},{"type":"Feature","geometry":{"type":"Point","coordinates":[39.5166723,-3.4745903]},"properties":{"FNO":"OSM-3421457155","F_NAME":"bandari dispensary","F_TYPE":4,"AGENCY":"Unknown","COUNTY":"KILIFI","DISTRICT":"KILIFI"}},{"type":"Feature","geometry":{"type":"Point","coordinates":[39.4652701,-3.6266155]},"properties":{"FNO":"OSM-3421461741","F_NAME":"maryango dispensary","F_TYPE":4,"AGENCY":"Unknown","COUNTY":"KILIFI","DISTRICT":"KILIFI"}},{"type":"Feature","geometry":{"type":"Point","coordinates":[39.5291057,-3.5226766]},"properties":{"FNO":"OSM-3421461747","F_NAME":"mbazizo medical clinic","F_TYPE":4,"AGENCY":"Unknown","COUNTY":"KILIFI","DISTRICT":"KILIFI"}},{"type":"Feature","geometry":{"type":"Point","coordinates":[39.3154575,-3.5440598]},"properties":{"FNO":"OSM-3421461750","F_NAME":"midoina dispensary","F_TYPE":4,"AGENCY":"Unknown","COUNTY":"KILIFI","DISTRICT":"KILIFI"}},{"type":"Feature","geometry":{"type":"Point","coordinates":[39.5857227,-3.4349907]},"properties":{"FNO":"OSM-3421461755","F_NAME":"mirihini dispensary","F_TYPE":4,"AGENCY":"Unknown","COUNTY":"KILIFI","DISTRICT":"KILIFI"}},{"type":"Feature","geometry":{"type":"Point","coordinates":[39.4073178,-3.5553635]},"properties":{"FNO":"OSM-3421461757","F_NAME":"mitangani dispensary","F_TYPE":4,"AGENCY":"Unknown","COUNTY":"KILIFI","DISTRICT":"KILIFI"}},{"type":"Feature","geometry":{"type":"Point","coordinates":[39.5092918,-3.3674283]},"properties":{"FNO":"OSM-3421461775","F_NAME":"ndigiria dispensary","F_TYPE":4,"AGENCY":"Unknown","COUNTY":"KILIFI","DISTRICT":"KILIFI"}},{"type":"Feature","geometry":{"type":"Point","coordinates":[38.5598611,-3.3893469]},"properties":{"FNO":"OSM-3486411137","F_NAME":"Moi Hospital Voi","F_TYPE":4,"AGENCY":"Unknown","COUNTY":"TAITA TAVETA","DISTRICT":"TAITA TAVETA"}},{"type":"Feature","geometry":{"type":"Point","coordinates":[36.9575703,-1.4783967]},"properties":{"FNO":"OSM-3595689026","F_NAME":"Aga Khan Hospital Kitengela","F_TYPE":4,"AGENCY":"Aga Khan Hospital","COUNTY":"KAJIADO","DISTRICT":"KAJIADO"}},{"type":"Feature","geometry":{"type":"Point","coordinates":[39.0760909,-4.3511366]},"properties":{"FNO":"OSM-3603465851","F_NAME":"Kilimangodo Dispensary","F_TYPE":4,"AGENCY":"Unknown","COUNTY":"KWALE","DISTRICT":"KWALE"}},{"type":"Feature","geometry":{"type":"Point","coordinates":[34.562288,-0.7084255]},"properties":{"FNO":"OSM-3612418828","F_NAME":"Kochola Dispensary","F_TYPE":4,"AGENCY":"MOH","COUNTY":"MIGORI","DISTRICT":"MIGORI"}},{"type":"Feature","geometry":{"type":"Point","coordinates":[35.7500485,0.771413]},"properties":{"FNO":"OSM-3674800601","F_NAME":"Kombosang Dispensary","F_TYPE":2,"AGENCY":"Unknown","COUNTY":"BARINGO","DISTRICT":"BARINGO"}},{"type":"Feature","geometry":{"type":"Point","coordinates":[35.6937381,0.7510369]},"properties":{"FNO":"OSM-3674800616","F_NAME":"Likwon Dispensary","F_TYPE":2,"AGENCY":"Unknown","COUNTY":"BARINGO","DISTRICT":"BARINGO"}},{"type":"Feature","geometry":{"type":"Point","coordinates":[35.6262201,0.5867508]},"properties":{"FNO":"OSM-3674804333","F_NAME":"proposed chemura dispensary","F_TYPE":4,"AGENCY":"Unknown","COUNTY":"BARINGO","DISTRICT":"BARINGO"}},{"type":"Feature","geometry":{"type":"Point","coordinates":[40.0360241,1.7415482]},"properties":{"FNO":"OSM-3683520805","F_NAME":"Barwaqo Dispensary","F_TYPE":4,"AGENCY":"Unknown","COUNTY":"WAJIR","DISTRICT":"WAJIR"}},{"type":"Feature","geometry":{"type":"Point","coordinates":[40.0813793,1.7542999]},"properties":{"FNO":"OSM-3683621144","F_NAME":"Waberi Health Center","F_TYPE":4,"AGENCY":"Unknown","COUNTY":"WAJIR","DISTRICT":"WAJIR"}},{"type":"Feature","geometry":{"type":"Point","coordinates":[35.7116856,0.7771487]},"properties":{"FNO":"OSM-3688362774","F_NAME":"kuikui health center","F_TYPE":4,"AGENCY":"Unknown","COUNTY":"BARINGO","DISTRICT":"BARINGO"}},{"type":"Feature","geometry":{"type":"Point","coordinates":[40.0222015,1.7614214]},"properties":{"FNO":"OSM-3689545199","F_NAME":"Makoror Dispensary","F_TYPE":4,"AGENCY":"Unknown","COUNTY":"WAJIR","DISTRICT":"WAJIR"}},{"type":"Feature","geometry":{"type":"Point","coordinates":[39.9429117,1.783257]},"properties":{"FNO":"OSM-3689569333","F_NAME":"Wagalla Health Center","F_TYPE":4,"AGENCY":"Unknown","COUNTY":"WAJIR","DISTRICT":"WAJIR"}},{"type":"Feature","geometry":{"type":"Point","coordinates":[39.8266712,1.8886213]},"properties":{"FNO":"OSM-3689589880","F_NAME":"Tulatula Dispensary","F_TYPE":4,"AGENCY":"Unknown","COUNTY":"WAJIR","DISTRICT":"WAJIR"}},{"type":"Feature","geometry":{"type":"Point","coordinates":[39.7235828,2.4941907]},"properties":{"FNO":"OSM-3693575970","F_NAME":"Anole Dispensary","F_TYPE":4,"AGENCY":"Unknown","COUNTY":"WAJIR","DISTRICT":"WAJIR"}},{"type":"Feature","geometry":{"type":"Point","coordinates":[39.4969017,2.7956282]},"properties":{"FNO":"OSM-3695322662","F_NAME":"Buna Health Center","F_TYPE":4,"AGENCY":"Unknown","COUNTY":"WAJIR","DISTRICT":"WAJIR"}},{"type":"Feature","geometry":{"type":"Point","coordinates":[39.2746277,2.8767513]},"properties":{"FNO":"OSM-3695322666","F_NAME":"Ingrir Dispensary","F_TYPE":4,"AGENCY":"Unknown","COUNTY":"WAJIR","DISTRICT":"WAJIR"}},{"type":"Feature","geometry":{"type":"Point","coordinates":[39.3159949,2.9894372]},"properties":{"FNO":"OSM-3695362760","F_NAME":"Korendile Health Center","F_TYPE":4,"AGENCY":"Unknown","COUNTY":"WAJIR","DISTRICT":"WAJIR"}},{"type":"Feature","geometry":{"type":"Point","coordinates":[39.7805417,3.3372977]},"properties":{"FNO":"OSM-3696856323","F_NAME":"Danaba Dispensary","F_TYPE":4,"AGENCY":"Unknown","COUNTY":"WAJIR","DISTRICT":"WAJIR"}},{"type":"Feature","geometry":{"type":"Point","coordinates":[39.8213942,3.1782246]},"properties":{"FNO":"OSM-3696895024","F_NAME":"Qudama Dispensary","F_TYPE":4,"AGENCY":"Unknown","COUNTY":"WAJIR","DISTRICT":"WAJIR"}},{"type":"Feature","geometry":{"type":"Point","coordinates":[39.4584331,3.3343861]},"properties":{"FNO":"OSM-3697007909","F_NAME":"Adadijole Dispensary","F_TYPE":4,"AGENCY":"Unknown","COUNTY":"WAJIR","DISTRICT":"WAJIR"}},{"type":"Feature","geometry":{"type":"Point","coordinates":[39.4457266,3.196409]},"properties":{"FNO":"OSM-3697007910","F_NAME":"Ogorji Health Center","F_TYPE":4,"AGENCY":"Unknown","COUNTY":"WAJIR","DISTRICT":"WAJIR"}},{"type":"Feature","geometry":{"type":"Point","coordinates":[39.9520173,2.5405338]},"properties":{"FNO":"OSM-3702342279","F_NAME":"Sarman Dispensary","F_TYPE":4,"AGENCY":"Unknown","COUNTY":"WAJIR","DISTRICT":"WAJIR"}},{"type":"Feature","geometry":{"type":"Point","coordinates":[40.5261826,2.6620516]},"properties":{"FNO":"OSM-3702436354","F_NAME":"Bojigaras Dispensary","F_TYPE":4,"AGENCY":"Unknown","COUNTY":"WAJIR","DISTRICT":"WAJIR"}},{"type":"Feature","geometry":{"type":"Point","coordinates":[40.2653301,2.9759219]},"properties":{"FNO":"OSM-3702436357","F_NAME":"Bur Mayo Dispensary","F_TYPE":4,"AGENCY":"Unknown","COUNTY":"WAJIR","DISTRICT":"WAJIR"}},{"type":"Feature","geometry":{"type":"Point","coordinates":[39.9863778,2.7101903]},"properties":{"FNO":"OSM-3702436364","F_NAME":"Dunto Dispensary","F_TYPE":4,"AGENCY":"Unknown","COUNTY":"WAJIR","DISTRICT":"WAJIR"}},{"type":"Feature","geometry":{"type":"Point","coordinates":[40.0978592,3.16894]},"properties":{"FNO":"OSM-3702436366","F_NAME":"Gunana Dispensary","F_TYPE":4,"AGENCY":"Unknown","COUNTY":"MANDERA","DISTRICT":"MANDERA"}},{"type":"Feature","geometry":{"type":"Point","coordinates":[40.2052802,2.7472603]},"properties":{"FNO":"OSM-3702436371","F_NAME":"Ogaralle Dispensary","F_TYPE":4,"AGENCY":"Unknown","COUNTY":"WAJIR","DISTRICT":"WAJIR"}},{"type":"Feature","geometry":{"type":"Point","coordinates":[40.5978108,2.4089957]},"properties":{"FNO":"OSM-3702498495","F_NAME":"Kutulo Health Center","F_TYPE":4,"AGENCY":"Unknown","COUNTY":"WAJIR","DISTRICT":"WAJIR"}},{"type":"Feature","geometry":{"type":"Point","coordinates":[40.2214226,2.5291197]},"properties":{"FNO":"OSM-3702498503","F_NAME":"Mansa Health Center","F_TYPE":4,"AGENCY":"Unknown","COUNTY":"WAJIR","DISTRICT":"WAJIR"}},{"type":"Feature","geometry":{"type":"Point","coordinates":[40.0171996,2.4027699]},"properties":{"FNO":"OSM-3702721529","F_NAME":"Dambas Health Center","F_TYPE":4,"AGENCY":"Unknown","COUNTY":"WAJIR","DISTRICT":"WAJIR"}},{"type":"Feature","geometry":{"type":"Point","coordinates":[40.1823437,2.3020343]},"properties":{"FNO":"OSM-3702721539","F_NAME":"Elben Dispensary","F_TYPE":4,"AGENCY":"Unknown","COUNTY":"WAJIR","DISTRICT":"WAJIR"}},{"type":"Feature","geometry":{"type":"Point","coordinates":[40.3617509,2.305863]},"properties":{"FNO":"OSM-3702721568","F_NAME":"Wargadud Dispensary","F_TYPE":4,"AGENCY":"Unknown","COUNTY":"WAJIR","DISTRICT":"WAJIR"}},{"type":"Feature","geometry":{"type":"Point","coordinates":[39.9970681,1.8323706]},"properties":{"FNO":"OSM-3702818291","F_NAME":"Elnur Dispensary","F_TYPE":4,"AGENCY":"Unknown","COUNTY":"WAJIR","DISTRICT":"WAJIR"}},{"type":"Feature","geometry":{"type":"Point","coordinates":[40.0099163,1.9014688]},"properties":{"FNO":"OSM-3702818300","F_NAME":"Katote Dispensary","F_TYPE":4,"AGENCY":"Unknown","COUNTY":"WAJIR","DISTRICT":"WAJIR"}},{"type":"Feature","geometry":{"type":"Point","coordinates":[40.0098868,1.6285297]},"properties":{"FNO":"OSM-3713167013","F_NAME":"Leheley Health Center","F_TYPE":2,"AGENCY":"Unknown","COUNTY":"WAJIR","DISTRICT":"WAJIR"}},{"type":"Feature","geometry":{"type":"Point","coordinates":[39.7131097,0.6274012]},"properties":{"FNO":"OSM-3713229994","F_NAME":"Abakore Health center","F_TYPE":4,"AGENCY":"Unknown","COUNTY":"WAJIR","DISTRICT":"WAJIR"}},{"type":"Feature","geometry":{"type":"Point","coordinates":[40.9594663,0.9939845]},"properties":{"FNO":"OSM-3713247509","F_NAME":"Dif Health Center","F_TYPE":4,"AGENCY":"Unknown","COUNTY":"WAJIR","DISTRICT":"WAJIR"}},{"type":"Feature","geometry":{"type":"Point","coordinates":[36.8911906,-1.2497515]},"properties":{"FNO":"OSM-3723143876","F_NAME":"blue cross rehab centre","F_TYPE":4,"AGENCY":"Unknown","COUNTY":"NAIROBI","DISTRICT":"NAIROBI"}},{"type":"Feature","geometry":{"type":"Point","coordinates":[36.8922938,-1.2460944]},"properties":{"FNO":"OSM-3723146925","F_NAME":"legacy dispensing chemist","F_TYPE":4,"AGENCY":"Unknown","COUNTY":"NAIROBI","DISTRICT":"NAIROBI"}},{"type":"Feature","geometry":{"type":"Point","coordinates":[36.8872415,-1.2545455]},"properties":{"FNO":"OSM-3723146927","F_NAME":"lema dispensing chemist","F_TYPE":4,"AGENCY":"Unknown","COUNTY":"NAIROBI","DISTRICT":"NAIROBI"}},{"type":"Feature","geometry":{"type":"Point","coordinates":[40.3603168,1.6694266]},"properties":{"FNO":"OSM-3781927480","F_NAME":"Argane Dispensary","F_TYPE":4,"AGENCY":"Unknown","COUNTY":"WAJIR","DISTRICT":"WAJIR"}},{"type":"Feature","geometry":{"type":"Point","coordinates":[40.6104444,1.580115]},"properties":{"FNO":"OSM-3781927483","F_NAME":"Ibrahim Ure Dispensary","F_TYPE":4,"AGENCY":"Unknown","COUNTY":"WAJIR","DISTRICT":"WAJIR"}},{"type":"Feature","geometry":{"type":"Point","coordinates":[39.7116664,-4.0320716]},"properties":{"FNO":"OSM-3848602473","F_NAME":"Gertrude's Children's Hospital Mombasa","F_TYPE":2,"AGENCY":"Unknown","COUNTY":"MOMBASA","DISTRICT":"MOMBASA"}},{"type":"Feature","geometry":{"type":"Point","coordinates":[39.6854076,-4.0482213]},"properties":{"FNO":"OSM-3848663084","F_NAME":"Plasma Medical Center","F_TYPE":4,"AGENCY":"Unknown","COUNTY":"MOMBASA","DISTRICT":"MOMBASA"}},{"type":"Feature","geometry":{"type":"Point","coordinates":[36.8363192,-1.3087127]},"properties":{"FNO":"OSM-3856033696","F_NAME":"Imara Clinic","F_TYPE":4,"AGENCY":"Unknown","COUNTY":"NAIROBI","DISTRICT":"NAIROBI"}},{"type":"Feature","geometry":{"type":"Point","coordinates":[36.8370454,-1.3091797]},"properties":{"FNO":"OSM-3856033697","F_NAME":"Kwa Kioko Clinic","F_TYPE":4,"AGENCY":"Unknown","COUNTY":"NAIROBI","DISTRICT":"NAIROBI"}},{"type":"Feature","geometry":{"type":"Point","coordinates":[36.8369739,-1.3091279]},"properties":{"FNO":"OSM-3856033699","F_NAME":"Mukami's Clinic","F_TYPE":4,"AGENCY":"Unknown","COUNTY":"NAIROBI","DISTRICT":"NAIROBI"}},{"type":"Feature","geometry":{"type":"Point","coordinates":[36.842793,-1.3109931]},"properties":{"FNO":"OSM-3856040557","F_NAME":"access afya clinic","F_TYPE":4,"AGENCY":"Unknown","COUNTY":"NAIROBI","DISTRICT":"NAIROBI"}},{"type":"Feature","geometry":{"type":"Point","coordinates":[36.8423509,-1.3111881]},"properties":{"FNO":"OSM-3856041357","F_NAME":"clinic","F_TYPE":4,"AGENCY":"Unknown","COUNTY":"NAIROBI","DISTRICT":"NAIROBI"}},{"type":"Feature","geometry":{"type":"Point","coordinates":[36.842276,-1.311235]},"properties":{"FNO":"OSM-3856041557","F_NAME":"clinic","F_TYPE":4,"AGENCY":"Unknown","COUNTY":"NAIROBI","DISTRICT":"NAIROBI"}},{"type":"Feature","geometry":{"type":"Point","coordinates":[36.8435124,-1.3124379]},"properties":{"FNO":"OSM-3856101439","F_NAME":"Imara Clinic","F_TYPE":4,"AGENCY":"Unknown","COUNTY":"NAIROBI","DISTRICT":"NAIROBI"}},{"type":"Feature","geometry":{"type":"Point","coordinates":[36.8411628,-1.3080599]},"properties":{"FNO":"OSM-3856130361","F_NAME":"fema medical clinic","F_TYPE":4,"AGENCY":"Unknown","COUNTY":"NAIROBI","DISTRICT":"NAIROBI"}},{"type":"Feature","geometry":{"type":"Point","coordinates":[36.8475543,-1.3139039]},"properties":{"FNO":"OSM-3856214865","F_NAME":"Grace medical clinic","F_TYPE":4,"AGENCY":"Unknown","COUNTY":"NAIROBI","DISTRICT":"NAIROBI"}},{"type":"Feature","geometry":{"type":"Point","coordinates":[34.1257065,0.5361389]},"properties":{"FNO":"OSM-3999155390","F_NAME":"St Louice Medical Clinic and Laboratory Services","F_TYPE":4,"AGENCY":"Unknown","COUNTY":"BUSIA","DISTRICT":"BUSIA"}},{"type":"Feature","geometry":{"type":"Point","coordinates":[36.4963235,-1.1487257]},"properties":{"FNO":"OSM-4008497665","F_NAME":"Ewuaso Dispensery","F_TYPE":4,"AGENCY":"Unknown","COUNTY":"KAJIADO","DISTRICT":"KAJIADO"}},{"type":"Feature","geometry":{"type":"Point","coordinates":[39.5632562,-4.1898915]},"properties":{"FNO":"OSM-4076565762","F_NAME":"Bethany Dispensary","F_TYPE":4,"AGENCY":"Unknown","COUNTY":"KWALE","DISTRICT":"KWALE"}},{"type":"Feature","geometry":{"type":"Point","coordinates":[36.3189466,-0.817411]},"properties":{"FNO":"OSM-4129583389","F_NAME":"Mvuke Clinic","F_TYPE":4,"AGENCY":"Unknown","COUNTY":"NAKURU","DISTRICT":"NAKURU"}},{"type":"Feature","geometry":{"type":"Point","coordinates":[40.1254902,-3.2327384]},"properties":{"FNO":"OSM-4200025930","F_NAME":"St Peter Health Centre","F_TYPE":4,"AGENCY":"Unknown","COUNTY":"KILIFI","DISTRICT":"KILIFI"}},{"type":"Feature","geometry":{"type":"Point","coordinates":[39.5271168,-4.3751832]},"properties":{"FNO":"OSM-4335164354","F_NAME":"kinondo dispensary","F_TYPE":4,"AGENCY":"clinical officer","COUNTY":"KWALE","DISTRICT":"KWALE"}},{"type":"Feature","geometry":{"type":"Point","coordinates":[37.0474728,-1.4381146]},"properties":{"FNO":"OSM-4340487489","F_NAME":"Clinix","F_TYPE":4,"AGENCY":"Unknown","COUNTY":"MACHAKOS","DISTRICT":"MACHAKOS"}},{"type":"Feature","geometry":{"type":"Point","coordinates":[34.7444944,0.1619567]},"properties":{"FNO":"OSM-4366452438","F_NAME":"Iguhu Dispensary","F_TYPE":4,"AGENCY":"Unknown","COUNTY":"KAKAMEGA","DISTRICT":"KAKAMEGA"}},{"type":"Feature","geometry":{"type":"Point","coordinates":[36.8513356,-1.2654296]},"properties":{"FNO":"OSM-4500146285","F_NAME":"Rays of Hope Medical Clinic","F_TYPE":4,"AGENCY":"Unknown","COUNTY":"NAIROBI","DISTRICT":"NAIROBI"}},{"type":"Feature","geometry":{"type":"Point","coordinates":[36.8520614,-1.2646233]},"properties":{"FNO":"OSM-4500146286","F_NAME":"Stahi Medical Clinic","F_TYPE":4,"AGENCY":"Unknown","COUNTY":"NAIROBI","DISTRICT":"NAIROBI"}},{"type":"Feature","geometry":{"type":"Point","coordinates":[36.8554829,-1.2651922]},"properties":{"FNO":"OSM-4502112948","F_NAME":"Ederp Mathare 3A","F_TYPE":4,"AGENCY":"Unknown","COUNTY":"NAIROBI","DISTRICT":"NAIROBI"}},{"type":"Feature","geometry":{"type":"Point","coordinates":[36.8592418,-1.2641644]},"properties":{"FNO":"OSM-4502112970","F_NAME":"Uzima2 clinic","F_TYPE":4,"AGENCY":"Unknown","COUNTY":"NAIROBI","DISTRICT":"NAIROBI"}},{"type":"Feature","geometry":{"type":"Point","coordinates":[36.8494006,-1.2631862]},"properties":{"FNO":"OSM-4502203218","F_NAME":"Seme Medical Clinic","F_TYPE":4,"AGENCY":"Unknown","COUNTY":"NAIROBI","DISTRICT":"NAIROBI"}},{"type":"Feature","geometry":{"type":"Point","coordinates":[36.8552422,-1.2627306]},"properties":{"FNO":"OSM-4503852990","F_NAME":"Dan's medical center","F_TYPE":4,"AGENCY":"Unknown","COUNTY":"NAIROBI","DISTRICT":"NAIROBI"}},{"type":"Feature","geometry":{"type":"Point","coordinates":[36.8623283,-1.2630272]},"properties":{"FNO":"OSM-4503879843","F_NAME":"AIC Zion Medical Clinic","F_TYPE":4,"AGENCY":"Unknown","COUNTY":"NAIROBI","DISTRICT":"NAIROBI"}},{"type":"Feature","geometry":{"type":"Point","coordinates":[36.8635412,-1.2628447]},"properties":{"FNO":"OSM-4503879853","F_NAME":"Villa Medical Centre","F_TYPE":4,"AGENCY":"Unknown","COUNTY":"NAIROBI","DISTRICT":"NAIROBI"}},{"type":"Feature","geometry":{"type":"Point","coordinates":[36.8577894,-1.2634782]},"properties":{"FNO":"OSM-4503896057","F_NAME":"Johana Justin Jinnich(Shofco Mathre)","F_TYPE":2,"AGENCY":"Unknown","COUNTY":"NAIROBI","DISTRICT":"NAIROBI"}},{"type":"Feature","geometry":{"type":"Point","coordinates":[36.8611808,-1.2618779]},"properties":{"FNO":"OSM-4504009846","F_NAME":"Glorious Chemist and Clinic","F_TYPE":4,"AGENCY":"Unknown","COUNTY":"NAIROBI","DISTRICT":"NAIROBI"}},{"type":"Feature","geometry":{"type":"Point","coordinates":[36.8605486,-1.2620532]},"properties":{"FNO":"OSM-4504009847","F_NAME":"Pona Medical Centre","F_TYPE":4,"AGENCY":"Unknown","COUNTY":"NAIROBI","DISTRICT":"NAIROBI"}},{"type":"Feature","geometry":{"type":"Point","coordinates":[36.8426153,-1.3169513]},"properties":{"FNO":"OSM-4510460989","F_NAME":"Plainsview Dispensary","F_TYPE":4,"AGENCY":"Unknown","COUNTY":"NAIROBI","DISTRICT":"NAIROBI"}},{"type":"Feature","geometry":{"type":"Point","coordinates":[37.0685222,0.0217348]},"properties":{"FNO":"OSM-4581729090","F_NAME":"Maternity Nursing home","F_TYPE":4,"AGENCY":"Unknown","COUNTY":"LAIKIPIA","DISTRICT":"LAIKIPIA"}},{"type":"Feature","geometry":{"type":"Point","coordinates":[38.560033,-3.3939449]},"properties":{"FNO":"OSM-4595588690","F_NAME":"Voi Medical Centre","F_TYPE":4,"AGENCY":"Unknown","COUNTY":"TAITA TAVETA","DISTRICT":"TAITA TAVETA"}},{"type":"Feature","geometry":{"type":"Point","coordinates":[34.6107887,-0.0013957]},"properties":{"FNO":"OSM-4599996001","F_NAME":"University Clinic","F_TYPE":4,"AGENCY":"Unknown","COUNTY":"KISUMU","DISTRICT":"KISUMU"}},{"type":"Feature","geometry":{"type":"Point","coordinates":[39.618581,-3.5415037]},"properties":{"FNO":"OSM-4707793145","F_NAME":"no maneno clinic","F_TYPE":4,"AGENCY":"Unknown","COUNTY":"KILIFI","DISTRICT":"KILIFI"}},{"type":"Feature","geometry":{"type":"Point","coordinates":[39.659687,-3.4728635]},"properties":{"FNO":"OSM-4707793154","F_NAME":"ndungicha dispensary","F_TYPE":4,"AGENCY":"public","COUNTY":"KILIFI","DISTRICT":"KILIFI"}},{"type":"Feature","geometry":{"type":"Point","coordinates":[39.6878234,-3.5494075]},"properties":{"FNO":"OSM-4707793171","F_NAME":"ganze health","F_TYPE":4,"AGENCY":"Unknown","COUNTY":"KILIFI","DISTRICT":"KILIFI"}},{"type":"Feature","geometry":{"type":"Point","coordinates":[39.7474738,-3.4754826]},"properties":{"FNO":"OSM-4707793173","F_NAME":"kachororoni health centre","F_TYPE":4,"AGENCY":"Unknown","COUNTY":"KILIFI","DISTRICT":"KILIFI"}},{"type":"Feature","geometry":{"type":"Point","coordinates":[37.7330917,-3.4283124]},"properties":{"FNO":"OSM-4899413437","F_NAME":"Rekeke Health Center","F_TYPE":4,"AGENCY":"Unknown","COUNTY":"TAITA TAVETA","DISTRICT":"TAITA TAVETA"}},{"type":"Feature","geometry":{"type":"Point","coordinates":[36.809344,-1.2946543]},"properties":{"FNO":"OSM-4905830422","F_NAME":"AAR Williamsom Health Centre","F_TYPE":4,"AGENCY":"Unknown","COUNTY":"NAIROBI","DISTRICT":"NAIROBI"}},{"type":"Feature","geometry":{"type":"Point","coordinates":[36.7821951,-1.3112204]},"properties":{"FNO":"OSM-4963185917","F_NAME":"Beyond Zero Community Clinic","F_TYPE":4,"AGENCY":"Unknown","COUNTY":"NAIROBI","DISTRICT":"NAIROBI"}},{"type":"Feature","geometry":{"type":"Point","coordinates":[36.7719374,-1.307666]},"properties":{"FNO":"OSM-4963203883","F_NAME":"Kianda 42 Dispensary Beyond Zero","F_TYPE":4,"AGENCY":"Unknown","COUNTY":"NAIROBI","DISTRICT":"NAIROBI"}},{"type":"Feature","geometry":{"type":"Point","coordinates":[36.7719083,-1.3076369]},"properties":{"FNO":"OSM-4963203884","F_NAME":"Clinic 40 Jesus Medical Clinic","F_TYPE":4,"AGENCY":"Unknown","COUNTY":"NAIROBI","DISTRICT":"NAIROBI"}},{"type":"Feature","geometry":{"type":"Point","coordinates":[36.7900521,-1.313316]},"properties":{"FNO":"OSM-4963455954","F_NAME":"Mt. Kenya Chemist and Clinic","F_TYPE":4,"AGENCY":"Unknown","COUNTY":"NAIROBI","DISTRICT":"NAIROBI"}},{"type":"Feature","geometry":{"type":"Point","coordinates":[36.773577,-1.311116]},"properties":{"FNO":"OSM-4963467522","F_NAME":"Chandaria Clinic Shofco","F_TYPE":4,"AGENCY":"Unknown","COUNTY":"NAIROBI","DISTRICT":"NAIROBI"}},{"type":"Feature","geometry":{"type":"Point","coordinates":[36.7758653,-1.3112114]},"properties":{"FNO":"OSM-4963467523","F_NAME":"Rosade Medical Clinic","F_TYPE":4,"AGENCY":"Unknown","COUNTY":"NAIROBI","DISTRICT":"NAIROBI"}},{"type":"Feature","geometry":{"type":"Point","coordinates":[36.7739201,-1.31047]},"properties":{"FNO":"OSM-4963467524","F_NAME":"Bliss Medical HealthCare","F_TYPE":4,"AGENCY":"Unknown","COUNTY":"NAIROBI","DISTRICT":"NAIROBI"}},{"type":"Feature","geometry":{"type":"Point","coordinates":[36.773968,-1.3104057]},"properties":{"FNO":"OSM-4963467525","F_NAME":"Kinani Medical & Dental Clinic","F_TYPE":4,"AGENCY":"Unknown","COUNTY":"NAIROBI","DISTRICT":"NAIROBI"}},{"type":"Feature","geometry":{"type":"Point","coordinates":[36.787826,-1.3061438]},"properties":{"FNO":"OSM-4963507352","F_NAME":"Kibera LVCT Health Dream Centre","F_TYPE":4,"AGENCY":"Unknown","COUNTY":"NAIROBI","DISTRICT":"NAIROBI"}},{"type":"Feature","geometry":{"type":"Point","coordinates":[36.7766047,-1.3174781]},"properties":{"FNO":"OSM-4963527054","F_NAME":"Beyond Zero Community Clinic, Raila","F_TYPE":4,"AGENCY":"Unknown","COUNTY":"NAIROBI","DISTRICT":"NAIROBI"}},{"type":"Feature","geometry":{"type":"Point","coordinates":[36.7759732,-1.3163909]},"properties":{"FNO":"OSM-4963527055","F_NAME":"Beyond Zero Community Clinic","F_TYPE":4,"AGENCY":"Unknown","COUNTY":"NAIROBI","DISTRICT":"NAIROBI"}},{"type":"Feature","geometry":{"type":"Point","coordinates":[36.7939863,-1.3120923]},"properties":{"FNO":"OSM-4965328915","F_NAME":"FHOK- Family Care Medical Centre","F_TYPE":4,"AGENCY":"Unknown","COUNTY":"NAIROBI","DISTRICT":"NAIROBI"}},{"type":"Feature","geometry":{"type":"Point","coordinates":[36.79944,-1.3176322]},"properties":{"FNO":"OSM-4965328917","F_NAME":"Beyond Zero CBO Soweto","F_TYPE":4,"AGENCY":"Unknown","COUNTY":"NAIROBI","DISTRICT":"NAIROBI"}},{"type":"Feature","geometry":{"type":"Point","coordinates":[36.799668,-1.315161]},"properties":{"FNO":"OSM-4965328919","F_NAME":"Kibera Soweto M-Afya Health Centre","F_TYPE":4,"AGENCY":"Unknown","COUNTY":"NAIROBI","DISTRICT":"NAIROBI"}},{"type":"Feature","geometry":{"type":"Point","coordinates":[36.7868505,-1.3157734]},"properties":{"FNO":"OSM-4965342340","F_NAME":"Community Mobilizer","F_TYPE":4,"AGENCY":"Unknown","COUNTY":"NAIROBI","DISTRICT":"NAIROBI"}},{"type":"Feature","geometry":{"type":"Point","coordinates":[36.7805286,-1.315621]},"properties":{"FNO":"OSM-4965342342","F_NAME":"Shofco Shinning Hope for Communities","F_TYPE":4,"AGENCY":"Unknown","COUNTY":"NAIROBI","DISTRICT":"NAIROBI"}},{"type":"Feature","geometry":{"type":"Point","coordinates":[36.7943161,-1.3113933]},"properties":{"FNO":"OSM-4965351016","F_NAME":"Herbal Clinic","F_TYPE":4,"AGENCY":"Unknown","COUNTY":"NAIROBI","DISTRICT":"NAIROBI"}},{"type":"Feature","geometry":{"type":"Point","coordinates":[36.7785419,-1.3141269]},"properties":{"FNO":"OSM-4965724936","F_NAME":"Beyond Zero Community Clinic","F_TYPE":4,"AGENCY":"Unknown","COUNTY":"NAIROBI","DISTRICT":"NAIROBI"}},{"type":"Feature","geometry":{"type":"Point","coordinates":[36.7854907,-1.3097469]},"properties":{"FNO":"OSM-4967614274","F_NAME":"Al- Gadhir Medical Clinic","F_TYPE":4,"AGENCY":"Unknown","COUNTY":"NAIROBI","DISTRICT":"NAIROBI"}},{"type":"Feature","geometry":{"type":"Point","coordinates":[38.4908851,-3.0969565]},"properties":{"FNO":"OSM-5022183529","F_NAME":"Health Centre","F_TYPE":2,"AGENCY":"Unknown","COUNTY":"TAITA TAVETA","DISTRICT":"TAITA TAVETA"}},{"type":"Feature","geometry":{"type":"Point","coordinates":[39.7471238,-3.9551348]},"properties":{"FNO":"OSM-5066987922","F_NAME":"BCL Health Care Support","F_TYPE":4,"AGENCY":"Unknown","COUNTY":"KILIFI","DISTRICT":"KILIFI"}},{"type":"Feature","geometry":{"type":"Point","coordinates":[37.3635184,3.2012081]},"properties":{"FNO":"OSM-5128845812","F_NAME":"Jirena Medical Centre - Nomads Dispensary","F_TYPE":4,"AGENCY":"Unknown","COUNTY":"MARSABIT","DISTRICT":"MARSABIT"}},{"type":"Feature","geometry":{"type":"Point","coordinates":[36.5834266,-1.120343]},"properties":{"FNO":"OSM-5141192922","F_NAME":"Rwamburi Dispenserary","F_TYPE":4,"AGENCY":"Unknown","COUNTY":"KIAMBU","DISTRICT":"KIAMBU"}},{"type":"Feature","geometry":{"type":"Point","coordinates":[34.4686044,-0.6934663]},"properties":{"FNO":"OSM-5172729000","F_NAME":"ongako dispensary","F_TYPE":4,"AGENCY":"Unknown","COUNTY":"HOMA BAY","DISTRICT":"HOMA BAY"}},{"type":"Feature","geometry":{"type":"Point","coordinates":[34.3790615,-0.8178241]},"properties":{"FNO":"OSM-5172729032","F_NAME":"otange community health center","F_TYPE":4,"AGENCY":"Unknown","COUNTY":"HOMA BAY","DISTRICT":"HOMA BAY"}},{"type":"Feature","geometry":{"type":"Point","coordinates":[34.3016852,-0.8379064]},"properties":{"FNO":"OSM-5172729043","F_NAME":"osani community health centre","F_TYPE":4,"AGENCY":"Unknown","COUNTY":"HOMA BAY","DISTRICT":"HOMA BAY"}},{"type":"Feature","geometry":{"type":"Point","coordinates":[36.0027246,0.0690441]},"properties":{"FNO":"OSM-5327257636","F_NAME":"Kipkitur Dispensary","F_TYPE":4,"AGENCY":"Unknown","COUNTY":"BARINGO","DISTRICT":"BARINGO"}},{"type":"Feature","geometry":{"type":"Point","coordinates":[36.8298908,-1.1716327]},"properties":{"FNO":"OSM-5327747903","F_NAME":"Kiambu Sub-County Hospital Staff Houses","F_TYPE":2,"AGENCY":"Kiambu Govt","COUNTY":"KIAMBU","DISTRICT":"KIAMBU"}},{"type":"Feature","geometry":{"type":"Point","coordinates":[36.8293289,-1.1720478]},"properties":{"FNO":"OSM-5329657699","F_NAME":"Aga Khan Medical Centre Kiambu","F_TYPE":2,"AGENCY":"Aga Khan","COUNTY":"KIAMBU","DISTRICT":"KIAMBU"}},{"type":"Feature","geometry":{"type":"Point","coordinates":[36.841583,-1.2299963]},"properties":{"FNO":"OSM-5330413790","F_NAME":"Aga Khan Ridgeways Medical Centre","F_TYPE":4,"AGENCY":"Aga Khan University Hospital","COUNTY":"NAIROBI","DISTRICT":"NAIROBI"}},{"type":"Feature","geometry":{"type":"Point","coordinates":[36.7702909,-1.2908247]},"properties":{"FNO":"OSM-5334918491","F_NAME":"Aga Khan University Hospital Medical Centre","F_TYPE":4,"AGENCY":"Unknown","COUNTY":"NAIROBI","DISTRICT":"NAIROBI"}},{"type":"Feature","geometry":{"type":"Point","coordinates":[36.8249575,-1.2625569]},"properties":{"FNO":"OSM-5340968095","F_NAME":"Dr Harun A. Otieno FACC","F_TYPE":4,"AGENCY":"Unknown","COUNTY":"NAIROBI","DISTRICT":"NAIROBI"}},{"type":"Feature","geometry":{"type":"Point","coordinates":[36.8044524,-1.2317424]},"properties":{"FNO":"OSM-5352705127","F_NAME":"Migration Health Assessment Center (MHAC)","F_TYPE":4,"AGENCY":"Unknown","COUNTY":"NAIROBI","DISTRICT":"NAIROBI"}},{"type":"Feature","geometry":{"type":"Point","coordinates":[36.8168874,-1.3121609]},"properties":{"FNO":"OSM-5372450531","F_NAME":"The Aga Khan Medical Centre Tmall","F_TYPE":2,"AGENCY":"Unknown","COUNTY":"NAIROBI","DISTRICT":"NAIROBI"}},{"type":"Feature","geometry":{"type":"Point","coordinates":[36.8224486,-1.3001978]},"properties":{"FNO":"OSM-5378414084","F_NAME":"Mediplan Clinic Ltd Health Care Consultants","F_TYPE":4,"AGENCY":"Unknown","COUNTY":"NAIROBI","DISTRICT":"NAIROBI"}},{"type":"Feature","geometry":{"type":"Point","coordinates":[36.8124954,-1.2945593]},"properties":{"FNO":"OSM-5378551753","F_NAME":"Kigen Bartilol","F_TYPE":4,"AGENCY":"Unknown","COUNTY":"NAIROBI","DISTRICT":"NAIROBI"}},{"type":"Feature","geometry":{"type":"Point","coordinates":[36.8113444,-1.2984412]},"properties":{"FNO":"OSM-5380534546","F_NAME":"Pathway International","F_TYPE":4,"AGENCY":"Unknown","COUNTY":"NAIROBI","DISTRICT":"NAIROBI"}},{"type":"Feature","geometry":{"type":"Point","coordinates":[36.8111229,-1.2984254]},"properties":{"FNO":"OSM-5380534547","F_NAME":"German Medical Center","F_TYPE":4,"AGENCY":"Unknown","COUNTY":"NAIROBI","DISTRICT":"NAIROBI"}},{"type":"Feature","geometry":{"type":"Point","coordinates":[36.8115943,-1.2899138]},"properties":{"FNO":"OSM-5383793221","F_NAME":"Gilead Medical Centre","F_TYPE":4,"AGENCY":"Unknown","COUNTY":"NAIROBI","DISTRICT":"NAIROBI"}},{"type":"Feature","geometry":{"type":"Point","coordinates":[36.8091171,-1.2944572]},"properties":{"FNO":"OSM-5383793246","F_NAME":"AAR Healthcare Williamson Outpatient Centre","F_TYPE":4,"AGENCY":"Unknown","COUNTY":"NAIROBI","DISTRICT":"NAIROBI"}},{"type":"Feature","geometry":{"type":"Point","coordinates":[36.8081549,-1.2957148]},"properties":{"FNO":"OSM-5383793260","F_NAME":"Precise Diagnostic Imaging","F_TYPE":4,"AGENCY":"Unknown","COUNTY":"NAIROBI","DISTRICT":"NAIROBI"}},{"type":"Feature","geometry":{"type":"Point","coordinates":[36.8082667,-1.2959296]},"properties":{"FNO":"OSM-5383793261","F_NAME":"IncusEar Hearing and E.N.T Centre","F_TYPE":4,"AGENCY":"Unknown","COUNTY":"NAIROBI","DISTRICT":"NAIROBI"}},{"type":"Feature","geometry":{"type":"Point","coordinates":[36.8065013,-1.2946882]},"properties":{"FNO":"OSM-5383793265","F_NAME":"Prof Josephat A O Mulimba","F_TYPE":4,"AGENCY":"Unknown","COUNTY":"NAIROBI","DISTRICT":"NAIROBI"}},{"type":"Feature","geometry":{"type":"Point","coordinates":[36.8066523,-1.2945712]},"properties":{"FNO":"OSM-5383793266","F_NAME":"Laser Stone & Endoscopy Centre","F_TYPE":4,"AGENCY":"Unknown","COUNTY":"NAIROBI","DISTRICT":"NAIROBI"}},{"type":"Feature","geometry":{"type":"Point","coordinates":[36.8083045,-1.3035206]},"properties":{"FNO":"OSM-5383793350","F_NAME":"Comprehensive Care Centre","F_TYPE":4,"AGENCY":"Unknown","COUNTY":"NAIROBI","DISTRICT":"NAIROBI"}},{"type":"Feature","geometry":{"type":"Point","coordinates":[36.799752,-1.2989618]},"properties":{"FNO":"OSM-5401775775","F_NAME":"Careville Wellness Centre","F_TYPE":4,"AGENCY":"Unknown","COUNTY":"NAIROBI","DISTRICT":"NAIROBI"}},{"type":"Feature","geometry":{"type":"Point","coordinates":[36.7890943,-1.3022058]},"properties":{"FNO":"OSM-5401775808","F_NAME":"Vips Health Services","F_TYPE":4,"AGENCY":"Unknown","COUNTY":"NAIROBI","DISTRICT":"NAIROBI"}},{"type":"Feature","geometry":{"type":"Point","coordinates":[36.7793505,-1.3008639]},"properties":{"FNO":"OSM-5412286155","F_NAME":"Iran Medical Clinic","F_TYPE":4,"AGENCY":"Unknown","COUNTY":"NAIROBI","DISTRICT":"NAIROBI"}},{"type":"Feature","geometry":{"type":"Point","coordinates":[36.7877061,-1.3009005]},"properties":{"FNO":"OSM-5414008483","F_NAME":"Aga Khan University Hospital Medical Centre","F_TYPE":4,"AGENCY":"Unknown","COUNTY":"NAIROBI","DISTRICT":"NAIROBI"}},{"type":"Feature","geometry":{"type":"Point","coordinates":[36.8308818,-1.2757375]},"properties":{"FNO":"OSM-5475093964","F_NAME":"Taiba","F_TYPE":4,"AGENCY":"Unknown","COUNTY":"NAIROBI","DISTRICT":"NAIROBI"}},{"type":"Feature","geometry":{"type":"Point","coordinates":[39.793616,-1.0182385]},"properties":{"FNO":"OSM-5488734122","F_NAME":"Bilbil Dispensary","F_TYPE":4,"AGENCY":"Unknown","COUNTY":"TANA RIVER","DISTRICT":"TANA RIVER"}},{"type":"Feature","geometry":{"type":"Point","coordinates":[36.8733714,-1.2967241]},"properties":{"FNO":"OSM-5496079260","F_NAME":"Makadara Health Centre","F_TYPE":4,"AGENCY":"Unknown","COUNTY":"NAIROBI","DISTRICT":"NAIROBI"}},{"type":"Feature","geometry":{"type":"Point","coordinates":[40.0375742,-1.497204]},"properties":{"FNO":"OSM-5504237522","F_NAME":"Tawheed Nursing Home","F_TYPE":4,"AGENCY":"Unknown","COUNTY":"TANA RIVER","DISTRICT":"TANA RIVER"}},{"type":"Feature","geometry":{"type":"Point","coordinates":[40.0366133,-1.4977527]},"properties":{"FNO":"OSM-5504249721","F_NAME":"Medina","F_TYPE":4,"AGENCY":"Unknown","COUNTY":"TANA RIVER","DISTRICT":"TANA RIVER"}},{"type":"Feature","geometry":{"type":"Point","coordinates":[36.8023954,-1.2596704]},"properties":{"FNO":"OSM-5535372936","F_NAME":"Chinese Clinic","F_TYPE":4,"AGENCY":"Unknown","COUNTY":"NAIROBI","DISTRICT":"NAIROBI"}},{"type":"Feature","geometry":{"type":"Point","coordinates":[35.2593967,0.46388]},"properties":{"FNO":"OSM-5547653730","F_NAME":"Racecourse","F_TYPE":4,"AGENCY":"Unknown","COUNTY":"UASIN GISHU","DISTRICT":"UASIN GISHU"}},{"type":"Feature","geometry":{"type":"Point","coordinates":[36.8187332,-1.2804367]},"properties":{"FNO":"OSM-5552467940","F_NAME":"Nairobi Outpatient Centre Ltd","F_TYPE":4,"AGENCY":"Unknown","COUNTY":"NAIROBI","DISTRICT":"NAIROBI"}},{"type":"Feature","geometry":{"type":"Point","coordinates":[36.8220131,-1.285773]},"properties":{"FNO":"OSM-5555073806","F_NAME":"The Aga Khan University Hospital","F_TYPE":4,"AGENCY":"Unknown","COUNTY":"NAIROBI","DISTRICT":"NAIROBI"}},{"type":"Feature","geometry":{"type":"Point","coordinates":[36.8178456,-1.2838554]},"properties":{"FNO":"OSM-5555073945","F_NAME":"Karen Hospital Clinic","F_TYPE":4,"AGENCY":"Unknown","COUNTY":"NAIROBI","DISTRICT":"NAIROBI"}},{"type":"Feature","geometry":{"type":"Point","coordinates":[36.8272955,-1.2879739]},"properties":{"FNO":"OSM-5555074074","F_NAME":"Mater Hospital","F_TYPE":4,"AGENCY":"Unknown","COUNTY":"NAIROBI","DISTRICT":"NAIROBI"}},{"type":"Feature","geometry":{"type":"Point","coordinates":[36.8313235,-1.2735567]},"properties":{"FNO":"OSM-5555704220","F_NAME":"Ngaira Health Centre","F_TYPE":4,"AGENCY":"Unknown","COUNTY":"NAIROBI","DISTRICT":"NAIROBI"}},{"type":"Feature","geometry":{"type":"Point","coordinates":[37.6282567,-1.7856]},"properties":{"FNO":"OSM-5588006402","F_NAME":"Sunshine Medical Clinic","F_TYPE":4,"AGENCY":"Unknown","COUNTY":"MAKUENI","DISTRICT":"MAKUENI"}},{"type":"Feature","geometry":{"type":"Point","coordinates":[37.5372217,-1.8155817]},"properties":{"FNO":"OSM-5588170686","F_NAME":"Nziu Health Centre -Maternity wing","F_TYPE":4,"AGENCY":"Unknown","COUNTY":"MAKUENI","DISTRICT":"MAKUENI"}},{"type":"Feature","geometry":{"type":"Point","coordinates":[37.6100624,-1.7893626]},"properties":{"FNO":"OSM-5588303132","F_NAME":"Prison Dispensary","F_TYPE":4,"AGENCY":"Unknown","COUNTY":"MAKUENI","DISTRICT":"MAKUENI"}},{"type":"Feature","geometry":{"type":"Point","coordinates":[37.6606655,-1.7870293]},"properties":{"FNO":"OSM-5592105448","F_NAME":"Bosnia Dispensary","F_TYPE":4,"AGENCY":"Makueni County Government","COUNTY":"MAKUENI","DISTRICT":"MAKUENI"}},{"type":"Feature","geometry":{"type":"Point","coordinates":[37.5614098,-1.7949694]},"properties":{"FNO":"OSM-5592113865","F_NAME":"Kitikyumu Dispensary","F_TYPE":4,"AGENCY":"Unknown","COUNTY":"MAKUENI","DISTRICT":"MAKUENI"}},{"type":"Feature","geometry":{"type":"Point","coordinates":[37.6294525,-1.7784952]},"properties":{"FNO":"OSM-5594269121","F_NAME":"Kasarani Medical Clinic","F_TYPE":4,"AGENCY":"Unknown","COUNTY":"MAKUENI","DISTRICT":"MAKUENI"}},{"type":"Feature","geometry":{"type":"Point","coordinates":[36.8784574,-1.3093421]},"properties":{"FNO":"OSM-5594850571","F_NAME":"Access Afya Medical Clinic","F_TYPE":4,"AGENCY":"Unknown","COUNTY":"NAIROBI","DISTRICT":"NAIROBI"}},{"type":"Feature","geometry":{"type":"Point","coordinates":[37.4684729,-1.6306172]},"properties":{"FNO":"OSM-5637519162","F_NAME":"Ebenezer","F_TYPE":4,"AGENCY":"Unknown","COUNTY":"MAKUENI","DISTRICT":"MAKUENI"}},{"type":"Feature","geometry":{"type":"Point","coordinates":[37.442025,-1.6578742]},"properties":{"FNO":"OSM-5641419309","F_NAME":"Assumption Sister's Clinic","F_TYPE":4,"AGENCY":"Unknown","COUNTY":"MAKUENI","DISTRICT":"MAKUENI"}},{"type":"Feature","geometry":{"type":"Point","coordinates":[37.4451453,-1.663103]},"properties":{"FNO":"OSM-5641419316","F_NAME":"DG Peter's Medical Center","F_TYPE":4,"AGENCY":"Unknown","COUNTY":"MAKUENI","DISTRICT":"MAKUENI"}},{"type":"Feature","geometry":{"type":"Point","coordinates":[37.4543496,-1.6589659]},"properties":{"FNO":"OSM-5641420358","F_NAME":"Mbooni Sub-County Hospital","F_TYPE":4,"AGENCY":"Unknown","COUNTY":"MAKUENI","DISTRICT":"MAKUENI"}},{"type":"Feature","geometry":{"type":"Point","coordinates":[37.4543836,-1.6589376]},"properties":{"FNO":"OSM-5641420359","F_NAME":"Mbooni Sub County Hospital","F_TYPE":4,"AGENCY":"Unknown","COUNTY":"MAKUENI","DISTRICT":"MAKUENI"}},{"type":"Feature","geometry":{"type":"Point","coordinates":[37.4545954,-1.6590352]},"properties":{"FNO":"OSM-5641420360","F_NAME":"Mbooni Sub-County Hospital","F_TYPE":4,"AGENCY":"Unknown","COUNTY":"MAKUENI","DISTRICT":"MAKUENI"}},{"type":"Feature","geometry":{"type":"Point","coordinates":[37.427395,-1.6666217]},"properties":{"FNO":"OSM-5702426113","F_NAME":"Katilini Dispensary Mbooni","F_TYPE":4,"AGENCY":"Unknown","COUNTY":"MAKUENI","DISTRICT":"MAKUENI"}},{"type":"Feature","geometry":{"type":"Point","coordinates":[37.4275183,-1.666555]},"properties":{"FNO":"OSM-5702426114","F_NAME":"Katilini Dispensary Mbooni","F_TYPE":4,"AGENCY":"Unknown","COUNTY":"MAKUENI","DISTRICT":"MAKUENI"}},{"type":"Feature","geometry":{"type":"Point","coordinates":[37.691382,-1.6248991]},"properties":{"FNO":"OSM-5702426115","F_NAME":"Ebenezer dispensary water tank","F_TYPE":4,"AGENCY":"Unknown","COUNTY":"MAKUENI","DISTRICT":"MAKUENI"}},{"type":"Feature","geometry":{"type":"Point","coordinates":[36.8686981,-1.311401]},"properties":{"FNO":"OSM-5704419900","F_NAME":"medilink medical","F_TYPE":4,"AGENCY":"Unknown","COUNTY":"NAIROBI","DISTRICT":"NAIROBI"}},{"type":"Feature","geometry":{"type":"Point","coordinates":[35.0038407,-0.5586633]},"properties":{"FNO":"OSM-5733416865","F_NAME":"Itibo Health Centre S.D.A.","F_TYPE":2,"AGENCY":"www.itibo.cz","COUNTY":"NYAMIRA","DISTRICT":"NYAMIRA"}},{"type":"Feature","geometry":{"type":"Point","coordinates":[37.6224997,-1.7836111]},"properties":{"FNO":"OSM-5736159630","F_NAME":"Rapha makueni nursing home","F_TYPE":4,"AGENCY":"Unknown","COUNTY":"MAKUENI","DISTRICT":"MAKUENI"}},{"type":"Feature","geometry":{"type":"Point","coordinates":[39.9201499,-3.34979]},"properties":{"FNO":"OSM-5751493136","F_NAME":"Mida Majaoni Commu nity Dispensary","F_TYPE":4,"AGENCY":"Government trhough community initiative","COUNTY":"KILIFI","DISTRICT":"KILIFI"}},{"type":"Feature","geometry":{"type":"Point","coordinates":[35.6609404,0.4967626]},"properties":{"FNO":"OSM-5779197166","F_NAME":"Salawa Health Centre","F_TYPE":4,"AGENCY":"Unknown","COUNTY":"BARINGO","DISTRICT":"BARINGO"}},{"type":"Feature","geometry":{"type":"Point","coordinates":[35.6644704,0.4913171]},"properties":{"FNO":"OSM-5779197183","F_NAME":"Salawa Catholic Private Health Clinic","F_TYPE":4,"AGENCY":"Unknown","COUNTY":"BARINGO","DISTRICT":"BARINGO"}},{"type":"Feature","geometry":{"type":"Point","coordinates":[35.6794434,0.5469838]},"properties":{"FNO":"OSM-5779268901","F_NAME":"Chesongo Dispensary","F_TYPE":4,"AGENCY":"County Government Of Baringo","COUNTY":"BARINGO","DISTRICT":"BARINGO"}},{"type":"Feature","geometry":{"type":"Point","coordinates":[35.6890038,0.4932663]},"properties":{"FNO":"OSM-5779324092","F_NAME":"Chepturet Dispensary","F_TYPE":4,"AGENCY":"Unknown","COUNTY":"BARINGO","DISTRICT":"BARINGO"}},{"type":"Feature","geometry":{"type":"Point","coordinates":[35.7362042,0.5328883]},"properties":{"FNO":"OSM-5779623112","F_NAME":"Kapkole dispensary","F_TYPE":4,"AGENCY":"County Goverment Of Baringo","COUNTY":"BARINGO","DISTRICT":"BARINGO"}},{"type":"Feature","geometry":{"type":"Point","coordinates":[35.7161572,0.5464468]},"properties":{"FNO":"OSM-5779623115","F_NAME":"Kapkokwon Dispensary","F_TYPE":4,"AGENCY":"County Goverment Of Baringo","COUNTY":"BARINGO","DISTRICT":"BARINGO"}},{"type":"Feature","geometry":{"type":"Point","coordinates":[35.6832942,0.5135886]},"properties":{"FNO":"OSM-5781093182","F_NAME":"Magonoi Dispensary","F_TYPE":4,"AGENCY":"Unknown","COUNTY":"BARINGO","DISTRICT":"BARINGO"}},{"type":"Feature","geometry":{"type":"Point","coordinates":[35.7338442,0.496605]},"properties":{"FNO":"OSM-5781399432","F_NAME":"Kaptimbor Dispensary","F_TYPE":4,"AGENCY":"Unknown","COUNTY":"BARINGO","DISTRICT":"BARINGO"}},{"type":"Feature","geometry":{"type":"Point","coordinates":[35.7432222,0.4853656]},"properties":{"FNO":"OSM-5781471255","F_NAME":"Baringo County referral hospital Surgical Ward","F_TYPE":4,"AGENCY":"Unknown","COUNTY":"BARINGO","DISTRICT":"BARINGO"}},{"type":"Feature","geometry":{"type":"Point","coordinates":[35.7435511,0.4859377]},"properties":{"FNO":"OSM-5781471256","F_NAME":"Baringo County referral hospital Mortuary","F_TYPE":4,"AGENCY":"Unknown","COUNTY":"BARINGO","DISTRICT":"BARINGO"}},{"type":"Feature","geometry":{"type":"Point","coordinates":[35.7430535,0.4915461]},"properties":{"FNO":"OSM-5781492702","F_NAME":"Tionybei Health Clinic","F_TYPE":4,"AGENCY":"Unknown","COUNTY":"BARINGO","DISTRICT":"BARINGO"}},{"type":"Feature","geometry":{"type":"Point","coordinates":[35.7432765,0.4930083]},"properties":{"FNO":"OSM-5781632989","F_NAME":"Figtree Optical","F_TYPE":4,"AGENCY":"Unknown","COUNTY":"BARINGO","DISTRICT":"BARINGO"}},{"type":"Feature","geometry":{"type":"Point","coordinates":[35.7432733,0.4929645]},"properties":{"FNO":"OSM-5781632990","F_NAME":"Sundowner Chemist","F_TYPE":4,"AGENCY":"Unknown","COUNTY":"BARINGO","DISTRICT":"BARINGO"}},{"type":"Feature","geometry":{"type":"Point","coordinates":[35.9412742,-0.3244627]},"properties":{"FNO":"OSM-5798481338","F_NAME":"Friends Medical Cetre","F_TYPE":4,"AGENCY":"Unknown","COUNTY":"NAKURU","DISTRICT":"NAKURU"}},{"type":"Feature","geometry":{"type":"Point","coordinates":[35.7240953,0.0412042]},"properties":{"FNO":"OSM-5798730246","F_NAME":"Mission Hospital","F_TYPE":4,"AGENCY":"Unknown","COUNTY":"BARINGO","DISTRICT":"BARINGO"}},{"type":"Feature","geometry":{"type":"Point","coordinates":[35.72442,0.0464489]},"properties":{"FNO":"OSM-5798859907","F_NAME":"Eldama Ravine Sub-County Referral Hospital- Opd Block","F_TYPE":4,"AGENCY":"Unknown","COUNTY":"BARINGO","DISTRICT":"BARINGO"}},{"type":"Feature","geometry":{"type":"Point","coordinates":[35.7246483,0.0458721]},"properties":{"FNO":"OSM-5798859910","F_NAME":"Eldama Ravine Sub-County Refferal Hospital- Orthopedic Ward","F_TYPE":4,"AGENCY":"Unknown","COUNTY":"BARINGO","DISTRICT":"BARINGO"}},{"type":"Feature","geometry":{"type":"Point","coordinates":[35.7247244,0.04579]},"properties":{"FNO":"OSM-5798859911","F_NAME":"Eldama Ravine Sub-County Referral Hospital-Laundry","F_TYPE":4,"AGENCY":"Unknown","COUNTY":"BARINGO","DISTRICT":"BARINGO"}},{"type":"Feature","geometry":{"type":"Point","coordinates":[35.7320689,0.0553917]},"properties":{"FNO":"OSM-5817717027","F_NAME":"Eldama Ravine Nursing Home","F_TYPE":4,"AGENCY":"Unknown","COUNTY":"BARINGO","DISTRICT":"BARINGO"}},{"type":"Feature","geometry":{"type":"Point","coordinates":[35.7240953,0.0412042]},"properties":{"FNO":"OSM-5820197019","F_NAME":"Mission Hospital","F_TYPE":4,"AGENCY":"Unknown","COUNTY":"BARINGO","DISTRICT":"BARINGO"}},{"type":"Feature","geometry":{"type":"Point","coordinates":[35.7427341,0.4850803]},"properties":{"FNO":"OSM-5820321726","F_NAME":"Kabarnet Refferal Hopital-ICU","F_TYPE":4,"AGENCY":"Unknown","COUNTY":"BARINGO","DISTRICT":"BARINGO"}},{"type":"Feature","geometry":{"type":"Point","coordinates":[36.8522643,-1.266017]},"properties":{"FNO":"OSM-5838100588","F_NAME":"MSF (Doctors Without Borders) medical center - Lavander clinic","F_TYPE":4,"AGENCY":"Médecins sans frontières","COUNTY":"NAIROBI","DISTRICT":"NAIROBI"}},{"type":"Feature","geometry":{"type":"Point","coordinates":[36.0814144,-0.2824652]},"properties":{"FNO":"OSM-5903940835","F_NAME":"Annex Hospital","F_TYPE":2,"AGENCY":"Unknown","COUNTY":"NAKURU","DISTRICT":"NAKURU"}},{"type":"Feature","geometry":{"type":"Point","coordinates":[39.6972538,-4.0461612]},"properties":{"FNO":"OSM-6038796194","F_NAME":"Bomu Hospital Nyali","F_TYPE":2,"AGENCY":"Unknown","COUNTY":"MOMBASA","DISTRICT":"MOMBASA"}},{"type":"Feature","geometry":{"type":"Point","coordinates":[37.0161245,0.184434]},"properties":{"FNO":"OSM-6140736225","F_NAME":"Daraja academy","F_TYPE":4,"AGENCY":"Unknown","COUNTY":"LAIKIPIA","DISTRICT":"LAIKIPIA"}},{"type":"Feature","geometry":{"type":"Point","coordinates":[34.7713435,-0.6711387]},"properties":{"FNO":"OSM-6140754488","F_NAME":"Kisii teaching and referral hospital","F_TYPE":2,"AGENCY":"Unknown","COUNTY":"KISII","DISTRICT":"KISII"}},{"type":"Feature","geometry":{"type":"Point","coordinates":[34.7718923,-0.6708511]},"properties":{"FNO":"OSM-6140755186","F_NAME":"Kisii teaching and referral hospital","F_TYPE":2,"AGENCY":"Unknown","COUNTY":"KISII","DISTRICT":"KISII"}},{"type":"Feature","geometry":{"type":"Point","coordinates":[36.9055678,-1.2676453]},"properties":{"FNO":"OSM-6173489602","F_NAME":"Aga Khan Hospital Komarock","F_TYPE":2,"AGENCY":"Unknown","COUNTY":"NAIROBI","DISTRICT":"NAIROBI"}},{"type":"Feature","geometry":{"type":"Point","coordinates":[34.6127831,-0.8249483]},"properties":{"FNO":"OSM-6191765988","F_NAME":"Rongo University Clinic","F_TYPE":4,"AGENCY":"Unknown","COUNTY":"MIGORI","DISTRICT":"MIGORI"}},{"type":"Feature","geometry":{"type":"Point","coordinates":[36.8570218,-1.3318863]},"properties":{"FNO":"OSM-6207599848","F_NAME":"Clinix Healthcare MFI","F_TYPE":4,"AGENCY":"Unknown","COUNTY":"NAIROBI","DISTRICT":"NAIROBI"}},{"type":"Feature","geometry":{"type":"Point","coordinates":[36.8892935,-1.3301109]},"properties":{"FNO":"OSM-6208216873","F_NAME":"Gertrude's Children's Hospital","F_TYPE":4,"AGENCY":"Unknown","COUNTY":"NAIROBI","DISTRICT":"NAIROBI"}},{"type":"Feature","geometry":{"type":"Point","coordinates":[36.8909788,-1.3289332]},"properties":{"FNO":"OSM-6208216882","F_NAME":"Nairobi Hospital Clinic","F_TYPE":4,"AGENCY":"Unknown","COUNTY":"NAIROBI","DISTRICT":"NAIROBI"}},{"type":"Feature","geometry":{"type":"Point","coordinates":[36.9119033,-1.363962]},"properties":{"FNO":"OSM-6208217707","F_NAME":"Medicross Clinic","F_TYPE":4,"AGENCY":"Unknown","COUNTY":"MACHAKOS","DISTRICT":"MACHAKOS"}},{"type":"Feature","geometry":{"type":"Point","coordinates":[37.1026634,-1.0546916]},"properties":{"FNO":"OSM-6210053469","F_NAME":"St. Mulumba Hospital","F_TYPE":2,"AGENCY":"Unknown","COUNTY":"KIAMBU","DISTRICT":"KIAMBU"}},{"type":"Feature","geometry":{"type":"Point","coordinates":[36.9262854,-1.3765098]},"properties":{"FNO":"OSM-6210101303","F_NAME":"Aga Khan University Hospital Medical Center","F_TYPE":4,"AGENCY":"Unknown","COUNTY":"MACHAKOS","DISTRICT":"MACHAKOS"}},{"type":"Feature","geometry":{"type":"Point","coordinates":[36.934438,-1.3909021]},"properties":{"FNO":"OSM-6210121906","F_NAME":"Mariakani Cottage Hospital","F_TYPE":2,"AGENCY":"Unknown","COUNTY":"MACHAKOS","DISTRICT":"MACHAKOS"}},{"type":"Feature","geometry":{"type":"Point","coordinates":[36.9635078,-0.4257494]},"properties":{"FNO":"OSM-6215953820","F_NAME":"Sikh Temple Road","F_TYPE":2,"AGENCY":"Unknown","COUNTY":"NYERI","DISTRICT":"NYERI"}},{"type":"Feature","geometry":{"type":"Point","coordinates":[36.8114972,-1.2645234]},"properties":{"FNO":"OSM-6225467024","F_NAME":"Dinesh Chandaria Medical Centre","F_TYPE":2,"AGENCY":"Unknown","COUNTY":"NAIROBI","DISTRICT":"NAIROBI"}},{"type":"Feature","geometry":{"type":"Point","coordinates":[36.7899351,-1.8420515]},"properties":{"FNO":"OSM-6235660167","F_NAME":"Border Medicare Centre","F_TYPE":4,"AGENCY":"Unknown","COUNTY":"KAJIADO","DISTRICT":"KAJIADO"}},{"type":"Feature","geometry":{"type":"Point","coordinates":[34.5582594,0.5808249]},"properties":{"FNO":"OSM-6236062123","F_NAME":"Kory Family Hospital","F_TYPE":4,"AGENCY":"Unknown","COUNTY":"BUNGOMA","DISTRICT":"BUNGOMA"}},{"type":"Feature","geometry":{"type":"Point","coordinates":[34.4876807,0.3356256]},"properties":{"FNO":"OSM-6241666287","F_NAME":"Mumias Mission","F_TYPE":2,"AGENCY":"Unknown","COUNTY":"KAKAMEGA","DISTRICT":"KAKAMEGA"}},{"type":"Feature","geometry":{"type":"Point","coordinates":[38.177706,-0.8772388]},"properties":{"FNO":"OSM-6243798527","F_NAME":"Mutuangombe Dispensary","F_TYPE":4,"AGENCY":"Unknown","COUNTY":"KITUI","DISTRICT":"KITUI"}},{"type":"Feature","geometry":{"type":"Point","coordinates":[34.7533472,0.2859002]},"properties":{"FNO":"OSM-6244082907","F_NAME":"Kakamega Central Nursing Home","F_TYPE":4,"AGENCY":"Unknown","COUNTY":"KAKAMEGA","DISTRICT":"KAKAMEGA"}},{"type":"Feature","geometry":{"type":"Point","coordinates":[38.301701,-1.056604]},"properties":{"FNO":"OSM-6244565565","F_NAME":"Matulani Dispensary","F_TYPE":4,"AGENCY":"Unknown","COUNTY":"KITUI","DISTRICT":"KITUI"}},{"type":"Feature","geometry":{"type":"Point","coordinates":[38.2555014,-0.9912498]},"properties":{"FNO":"OSM-6244567402","F_NAME":"Kalitini Dispensary","F_TYPE":4,"AGENCY":"Unknown","COUNTY":"KITUI","DISTRICT":"KITUI"}},{"type":"Feature","geometry":{"type":"Point","coordinates":[38.2363167,-1.0478505]},"properties":{"FNO":"OSM-6244567552","F_NAME":"Mathuki Health Centre","F_TYPE":4,"AGENCY":"Unknown","COUNTY":"KITUI","DISTRICT":"KITUI"}},{"type":"Feature","geometry":{"type":"Point","coordinates":[38.24437,-1.4359773]},"properties":{"FNO":"OSM-6244567617","F_NAME":"Zombe Health Centre","F_TYPE":4,"AGENCY":"Unknown","COUNTY":"KITUI","DISTRICT":"KITUI"}},{"type":"Feature","geometry":{"type":"Point","coordinates":[38.2730531,-1.3840872]},"properties":{"FNO":"OSM-6244568075","F_NAME":"Ngelani Dispensary","F_TYPE":4,"AGENCY":"Unknown","COUNTY":"KITUI","DISTRICT":"KITUI"}},{"type":"Feature","geometry":{"type":"Point","coordinates":[38.2466382,-0.8509268]},"properties":{"FNO":"OSM-6244576623","F_NAME":"Enziu Dispensary","F_TYPE":4,"AGENCY":"Unknown","COUNTY":"KITUI","DISTRICT":"KITUI"}},{"type":"Feature","geometry":{"type":"Point","coordinates":[38.2672431,-1.1186434]},"properties":{"FNO":"OSM-6244578178","F_NAME":"Nduu Vani Dispensary","F_TYPE":4,"AGENCY":"Unknown","COUNTY":"KITUI","DISTRICT":"KITUI"}},{"type":"Feature","geometry":{"type":"Point","coordinates":[36.8851084,-1.2272103]},"properties":{"FNO":"OSM-6247215859","F_NAME":"Neema Hospital","F_TYPE":2,"AGENCY":"Unknown","COUNTY":"NAIROBI","DISTRICT":"NAIROBI"}},{"type":"Feature","geometry":{"type":"Point","coordinates":[36.9024145,-1.2209872]},"properties":{"FNO":"OSM-6249063077","F_NAME":"Kasarani Health Centre","F_TYPE":4,"AGENCY":"Unknown","COUNTY":"NAIROBI","DISTRICT":"NAIROBI"}},{"type":"Feature","geometry":{"type":"Point","coordinates":[36.9003156,-1.218432]},"properties":{"FNO":"OSM-6249063518","F_NAME":"Shekinah Medical Centre","F_TYPE":2,"AGENCY":"Unknown","COUNTY":"NAIROBI","DISTRICT":"NAIROBI"}},{"type":"Feature","geometry":{"type":"Point","coordinates":[36.9133873,-1.2215987]},"properties":{"FNO":"OSM-6249168537","F_NAME":"Kasarani Maternity","F_TYPE":2,"AGENCY":"Unknown","COUNTY":"NAIROBI","DISTRICT":"NAIROBI"}},{"type":"Feature","geometry":{"type":"Point","coordinates":[38.2312236,-1.2527492]},"properties":{"FNO":"OSM-6303096758","F_NAME":"Itiko Dispensary","F_TYPE":4,"AGENCY":"Unknown","COUNTY":"KITUI","DISTRICT":"KITUI"}},{"type":"Feature","geometry":{"type":"Point","coordinates":[36.8873731,-1.2953701]},"properties":{"FNO":"OSM-6359782986","F_NAME":"Getrudes Children's Hospital Donholm","F_TYPE":2,"AGENCY":"Unknown","COUNTY":"NAIROBI","DISTRICT":"NAIROBI"}},{"type":"Feature","geometry":{"type":"Point","coordinates":[35.6657745,-1.6039992]},"properties":{"FNO":"OSM-6366202268","F_NAME":"Naikarra Dispensary","F_TYPE":2,"AGENCY":"Unknown","COUNTY":"NAROK","DISTRICT":"NAROK"}},{"type":"Feature","geometry":{"type":"Point","coordinates":[40.0301403,-1.49853]},"properties":{"FNO":"OSM-6470721213","F_NAME":"Hola District Hospital","F_TYPE":2,"AGENCY":"Unknown","COUNTY":"TANA RIVER","DISTRICT":"TANA RIVER"}},{"type":"Feature","geometry":{"type":"Point","coordinates":[36.4967322,-1.3449989]},"properties":{"FNO":"OSM-6472982937","F_NAME":"Unnamed Facility","F_TYPE":4,"AGENCY":"Unknown","COUNTY":"KAJIADO","DISTRICT":"KAJIADO"}},{"type":"Feature","geometry":{"type":"Point","coordinates":[36.4965793,-1.3449708]},"properties":{"FNO":"OSM-6472982938","F_NAME":"Unnamed Facility","F_TYPE":4,"AGENCY":"Unknown","COUNTY":"KAJIADO","DISTRICT":"KAJIADO"}},{"type":"Feature","geometry":{"type":"Point","coordinates":[36.434513,-1.3933105]},"properties":{"FNO":"OSM-6474778874","F_NAME":"Mobile Clinic","F_TYPE":4,"AGENCY":"Unknown","COUNTY":"KAJIADO","DISTRICT":"KAJIADO"}},{"type":"Feature","geometry":{"type":"Point","coordinates":[41.52466,-1.6958246]},"properties":{"FNO":"OSM-6485807586","F_NAME":"Dispensary","F_TYPE":4,"AGENCY":"Unknown","COUNTY":"LAMU","DISTRICT":"LAMU"}},{"type":"Feature","geometry":{"type":"Point","coordinates":[34.9742567,-0.8953306]},"properties":{"FNO":"OSM-6763668790","F_NAME":"RAMASHA DISPENSARY","F_TYPE":4,"AGENCY":"Unknown","COUNTY":"KISII","DISTRICT":"KISII"}},{"type":"Feature","geometry":{"type":"Point","coordinates":[36.9544656,-1.275444]},"properties":{"FNO":"OSM-6786366685","F_NAME":"Chui’s Residence","F_TYPE":4,"AGENCY":"Unknown","COUNTY":"NAIROBI","DISTRICT":"NAIROBI"}},{"type":"Feature","geometry":{"type":"Point","coordinates":[35.84667,0.039995]},"properties":{"FNO":"OSM-6788190593","F_NAME":"Kiptoim Dispensary","F_TYPE":4,"AGENCY":"Unknown","COUNTY":"BARINGO","DISTRICT":"BARINGO"}},{"type":"Feature","geometry":{"type":"Point","coordinates":[35.8572994,0.1026951]},"properties":{"FNO":"OSM-6788216971","F_NAME":"Rosoga Dispensary","F_TYPE":4,"AGENCY":"Unknown","COUNTY":"BARINGO","DISTRICT":"BARINGO"}},{"type":"Feature","geometry":{"type":"Point","coordinates":[35.86146,0.07914]},"properties":{"FNO":"OSM-6788216974","F_NAME":"Sagasagik Dispensary","F_TYPE":4,"AGENCY":"Unknown","COUNTY":"BARINGO","DISTRICT":"BARINGO"}},{"type":"Feature","geometry":{"type":"Point","coordinates":[35.98261,0.470783]},"properties":{"FNO":"OSM-6788435690","F_NAME":"Marigat Sub County Hospital","F_TYPE":4,"AGENCY":"Unknown","COUNTY":"BARINGO","DISTRICT":"BARINGO"}},{"type":"Feature","geometry":{"type":"Point","coordinates":[35.98487,0.4774237]},"properties":{"FNO":"OSM-6788450194","F_NAME":"Sub County Referral Hospital","F_TYPE":4,"AGENCY":"Unknown","COUNTY":"BARINGO","DISTRICT":"BARINGO"}},{"type":"Feature","geometry":{"type":"Point","coordinates":[35.89595,0.57055]},"properties":{"FNO":"OSM-6788466888","F_NAME":"Barsemoi","F_TYPE":4,"AGENCY":"Unknown","COUNTY":"BARINGO","DISTRICT":"BARINGO"}},{"type":"Feature","geometry":{"type":"Point","coordinates":[35.89154,0.46485]},"properties":{"FNO":"OSM-6788466895","F_NAME":"Kimalel Dispensary","F_TYPE":4,"AGENCY":"Unknown","COUNTY":"BARINGO","DISTRICT":"BARINGO"}},{"type":"Feature","geometry":{"type":"Point","coordinates":[35.84,0.272788]},"properties":{"FNO":"OSM-6788467268","F_NAME":"Tebei dispensary","F_TYPE":4,"AGENCY":"Unknown","COUNTY":"BARINGO","DISTRICT":"BARINGO"}},{"type":"Feature","geometry":{"type":"Point","coordinates":[35.88607,0.340183]},"properties":{"FNO":"OSM-6798591056","F_NAME":"Bekibon Maternity Renovation","F_TYPE":4,"AGENCY":"Unknown","COUNTY":"BARINGO","DISTRICT":"BARINGO"}},{"type":"Feature","geometry":{"type":"Point","coordinates":[35.88595,0.340027]},"properties":{"FNO":"OSM-6798591057","F_NAME":"Bekibon Dispensary","F_TYPE":4,"AGENCY":"Unknown","COUNTY":"BARINGO","DISTRICT":"BARINGO"}},{"type":"Feature","geometry":{"type":"Point","coordinates":[35.8679,0.294875]},"properties":{"FNO":"OSM-6798591061","F_NAME":"Tinomoi Dispensary","F_TYPE":4,"AGENCY":"Unknown","COUNTY":"BARINGO","DISTRICT":"BARINGO"}},{"type":"Feature","geometry":{"type":"Point","coordinates":[35.81625,0.557633]},"properties":{"FNO":"OSM-6798722867","F_NAME":"Sogon Dispensary","F_TYPE":4,"AGENCY":"Unknown","COUNTY":"BARINGO","DISTRICT":"BARINGO"}},{"type":"Feature","geometry":{"type":"Point","coordinates":[35.86625,0.51215]},"properties":{"FNO":"OSM-6799074261","F_NAME":"Kibingor Dispensary","F_TYPE":4,"AGENCY":"Unknown","COUNTY":"BARINGO","DISTRICT":"BARINGO"}},{"type":"Feature","geometry":{"type":"Point","coordinates":[35.7877,0.231798]},"properties":{"FNO":"OSM-6799387350","F_NAME":"Kapkein Dispensary","F_TYPE":4,"AGENCY":"Unknown","COUNTY":"BARINGO","DISTRICT":"BARINGO"}},{"type":"Feature","geometry":{"type":"Point","coordinates":[35.75419,0.198243]},"properties":{"FNO":"OSM-6799387367","F_NAME":"Sore Dispensary","F_TYPE":4,"AGENCY":"Unknown","COUNTY":"BARINGO","DISTRICT":"BARINGO"}},{"type":"Feature","geometry":{"type":"Point","coordinates":[35.86384,0.408687]},"properties":{"FNO":"OSM-6799444272","F_NAME":"Sabor Dispensary","F_TYPE":4,"AGENCY":"Unknown","COUNTY":"BARINGO","DISTRICT":"BARINGO"}},{"type":"Feature","geometry":{"type":"Point","coordinates":[35.91774,-0.06462]},"properties":{"FNO":"OSM-6799533364","F_NAME":"Kipsogon Health Center","F_TYPE":4,"AGENCY":"Unknown","COUNTY":"BARINGO","DISTRICT":"BARINGO"}},{"type":"Feature","geometry":{"type":"Point","coordinates":[35.9876,0.471912]},"properties":{"FNO":"OSM-6807332156","F_NAME":"Medical Clinic","F_TYPE":4,"AGENCY":"Unknown","COUNTY":"BARINGO","DISTRICT":"BARINGO"}},{"type":"Feature","geometry":{"type":"Point","coordinates":[35.98166,0.469255]},"properties":{"FNO":"OSM-6807413169","F_NAME":"Cheplogoi Siri Medical Clinic","F_TYPE":4,"AGENCY":"Unknown","COUNTY":"BARINGO","DISTRICT":"BARINGO"}},{"type":"Feature","geometry":{"type":"Point","coordinates":[35.9799017,0.4688617]},"properties":{"FNO":"OSM-6807606134","F_NAME":"Unnamed Facility","F_TYPE":4,"AGENCY":"Unknown","COUNTY":"BARINGO","DISTRICT":"BARINGO"}},{"type":"Feature","geometry":{"type":"Point","coordinates":[35.9794883,0.4680133]},"properties":{"FNO":"OSM-6807606135","F_NAME":"Kapkwei Dispensary","F_TYPE":4,"AGENCY":"Unknown","COUNTY":"BARINGO","DISTRICT":"BARINGO"}},{"type":"Feature","geometry":{"type":"Point","coordinates":[35.8461033,0.32406]},"properties":{"FNO":"OSM-6807606395","F_NAME":"Sereton Dispensary","F_TYPE":4,"AGENCY":"Unknown","COUNTY":"BARINGO","DISTRICT":"BARINGO"}},{"type":"Feature","geometry":{"type":"Point","coordinates":[35.7789717,0.2772767]},"properties":{"FNO":"OSM-6807606396","F_NAME":"Sangarau Dispensary","F_TYPE":4,"AGENCY":"Unknown","COUNTY":"BARINGO","DISTRICT":"BARINGO"}},{"type":"Feature","geometry":{"type":"Point","coordinates":[35.8066367,0.3859867]},"properties":{"FNO":"OSM-6807606992","F_NAME":"Kapkuei Dispensary","F_TYPE":4,"AGENCY":"Unknown","COUNTY":"BARINGO","DISTRICT":"BARINGO"}},{"type":"Feature","geometry":{"type":"Point","coordinates":[35.9876255,0.4718838]},"properties":{"FNO":"OSM-6807623050","F_NAME":"Medical Clinic","F_TYPE":4,"AGENCY":"Unknown","COUNTY":"BARINGO","DISTRICT":"BARINGO"}},{"type":"Feature","geometry":{"type":"Point","coordinates":[35.8174117,0.1660133]},"properties":{"FNO":"OSM-6808019395","F_NAME":"Kipngorom Dispensary","F_TYPE":4,"AGENCY":"Unknown","COUNTY":"BARINGO","DISTRICT":"BARINGO"}},{"type":"Feature","geometry":{"type":"Point","coordinates":[35.840905,0.1453133]},"properties":{"FNO":"OSM-6808019412","F_NAME":"Koitebes Dispensary","F_TYPE":4,"AGENCY":"Unknown","COUNTY":"BARINGO","DISTRICT":"BARINGO"}},{"type":"Feature","geometry":{"type":"Point","coordinates":[35.90508,0.056007]},"properties":{"FNO":"OSM-6808083481","F_NAME":"Ngubereti Health Center","F_TYPE":4,"AGENCY":"Unknown","COUNTY":"BARINGO","DISTRICT":"BARINGO"}},{"type":"Feature","geometry":{"type":"Point","coordinates":[35.9461,0.39505]},"properties":{"FNO":"OSM-6857038975","F_NAME":"Maoi Dispensary","F_TYPE":4,"AGENCY":"Unknown","COUNTY":"BARINGO","DISTRICT":"BARINGO"}},{"type":"Feature","geometry":{"type":"Point","coordinates":[35.9832474,0.4751274]},"properties":{"FNO":"OSM-6860048901","F_NAME":"Kapkures Dispensary","F_TYPE":4,"AGENCY":"Unknown","COUNTY":"BARINGO","DISTRICT":"BARINGO"}},{"type":"Feature","geometry":{"type":"Point","coordinates":[35.051975,1.2509717]},"properties":{"FNO":"OSM-6908475308","F_NAME":"Kaplelach-Koror Dispensary","F_TYPE":4,"AGENCY":"Unknown","COUNTY":"WEST POKOT","DISTRICT":"WEST POKOT"}},{"type":"Feature","geometry":{"type":"Point","coordinates":[35.12929,1.3690917]},"properties":{"FNO":"OSM-6908733058","F_NAME":"Chepkechir Dispensary","F_TYPE":4,"AGENCY":"Unknown","COUNTY":"WEST POKOT","DISTRICT":"WEST POKOT"}},{"type":"Feature","geometry":{"type":"Point","coordinates":[35.1294517,1.3687733]},"properties":{"FNO":"OSM-6908733059","F_NAME":"Chepkechir Dispensary","F_TYPE":4,"AGENCY":"Unknown","COUNTY":"WEST POKOT","DISTRICT":"WEST POKOT"}},{"type":"Feature","geometry":{"type":"Point","coordinates":[35.1189352,1.2905168]},"properties":{"FNO":"OSM-6908747810","F_NAME":"Kapkoris Dispensary","F_TYPE":4,"AGENCY":"Unknown","COUNTY":"WEST POKOT","DISTRICT":"WEST POKOT"}},{"type":"Feature","geometry":{"type":"Point","coordinates":[35.1188054,1.2906802]},"properties":{"FNO":"OSM-6908747811","F_NAME":"Kapkoris Dispensary","F_TYPE":4,"AGENCY":"Unknown","COUNTY":"WEST POKOT","DISTRICT":"WEST POKOT"}},{"type":"Feature","geometry":{"type":"Point","coordinates":[35.139075,1.2767833]},"properties":{"FNO":"OSM-6908747821","F_NAME":"Roponywo Dispensary","F_TYPE":4,"AGENCY":"Unknown","COUNTY":"WEST POKOT","DISTRICT":"WEST POKOT"}},{"type":"Feature","geometry":{"type":"Point","coordinates":[35.1409233,1.3063883]},"properties":{"FNO":"OSM-6908747824","F_NAME":"Kaprom Dispensary","F_TYPE":4,"AGENCY":"Unknown","COUNTY":"WEST POKOT","DISTRICT":"WEST POKOT"}},{"type":"Feature","geometry":{"type":"Point","coordinates":[35.0866983,1.3436033]},"properties":{"FNO":"OSM-6908794322","F_NAME":"Komol Dispensary","F_TYPE":4,"AGENCY":"Unknown","COUNTY":"WEST POKOT","DISTRICT":"WEST POKOT"}},{"type":"Feature","geometry":{"type":"Point","coordinates":[35.0842667,1.221095]},"properties":{"FNO":"OSM-6908909053","F_NAME":"Psigirio Dispensary","F_TYPE":4,"AGENCY":"Unknown","COUNTY":"WEST POKOT","DISTRICT":"WEST POKOT"}},{"type":"Feature","geometry":{"type":"Point","coordinates":[35.08421,1.221775]},"properties":{"FNO":"OSM-6908909054","F_NAME":"Psigirio Dispensary","F_TYPE":4,"AGENCY":"Unknown","COUNTY":"WEST POKOT","DISTRICT":"WEST POKOT"}},{"type":"Feature","geometry":{"type":"Point","coordinates":[35.091545,1.1921917]},"properties":{"FNO":"OSM-6908909058","F_NAME":"Murkwijit Dispensary","F_TYPE":4,"AGENCY":"Unknown","COUNTY":"WEST POKOT","DISTRICT":"WEST POKOT"}},{"type":"Feature","geometry":{"type":"Point","coordinates":[35.058815,1.18747]},"properties":{"FNO":"OSM-6924165769","F_NAME":"Kangulikwan Dispensary","F_TYPE":4,"AGENCY":"Unknown","COUNTY":"WEST POKOT","DISTRICT":"WEST POKOT"}},{"type":"Feature","geometry":{"type":"Point","coordinates":[35.0699233,1.3128833]},"properties":{"FNO":"OSM-6924297236","F_NAME":"Tampalal Dispensary","F_TYPE":4,"AGENCY":"Unknown","COUNTY":"WEST POKOT","DISTRICT":"WEST POKOT"}},